Time,Header.seq,Header.stamp.secs,Header.stamp.nsecs,Header.frame_id,IMU.header.seq,IMU.header.stamp.secs,IMU.header.stamp.nsecs,IMU.header.frame_id,IMU.orientation.x,IMU.orientation.y,IMU.orientation.z,IMU.orientation.w,IMU.orientation_covariance,IMU.angular_velocity.x,IMU.angular_velocity.y,IMU.angular_velocity.z,IMU.angular_velocity_covariance,IMU.linear_acceleration.x,IMU.linear_acceleration.y,IMU.linear_acceleration.z,IMU.linear_acceleration_covariance,MagField.header.seq,MagField.header.stamp.secs,MagField.header.stamp.nsecs,MagField.header.frame_id,MagField.magnetic_field.x,MagField.magnetic_field.y,MagField.magnetic_field.z,MagField.magnetic_field_covariance,VNYMR
1666974629.133227,0,1666974629,132905483,IMU1_Frame,0,0,0,,0.030253346915681965,0.05025690473427399,-0.4130780360630144,0.908804442467824,"(0.0, 0.0, 0.0, 0.0, 0.0, 0.0, 0.0, 0.0, 0.0)",-0.018576,-0.028613,-0.238516,"(0.0, 0.0, 0.0, 0.0, 0.0, 0.0, 0.0, 0.0, 0.0)",0.3,-1.013,-9.521,"(0.0, 0.0, 0.0, 0.0, 0.0, 0.0, 0.0, 0.0, 0.0)",0,0,0,,0.2578,-0.2709,0.6531,"(0.0, 0.0, 0.0, 0.0, 0.0, 0.0, 0.0, 0.0, 0.0)","b'$VNYMR,-048.841,+006.681,+000.777,+00.2578,-00.2709,+00.6531,+00.300,-01.013,-09.521,-00.018576,-00.028613,-00.238516"
1666974629.1563327,0,1666974629,156070709,IMU1_Frame,0,0,0,,0.02982859611326771,0.05010382657224032,-0.4157690098918545,0.907599025908621,"(0.0, 0.0, 0.0, 0.0, 0.0, 0.0, 0.0, 0.0, 0.0)",-0.006079,-0.026125,-0.236803,"(0.0, 0.0, 0.0, 0.0, 0.0, 0.0, 0.0, 0.0, 0.0)",0.11,-0.73,-9.384,"(0.0, 0.0, 0.0, 0.0, 0.0, 0.0, 0.0, 0.0, 0.0)",0,0,0,,0.2636,-0.2562,0.6499,"(0.0, 0.0, 0.0, 0.0, 0.0, 0.0, 0.0, 0.0, 0.0)","b'$VNYMR,-049.183,+006.647,+000.720,+00.2636,-00.2562,+00.6499,+00.110,-00.730,-09.384,-00.006079,-00.026125,-00.236803"
1666974629.183568,0,1666974629,182730674,IMU1_Frame,0,0,0,,0.029675807900523432,0.04990484873112234,-0.4184371509272417,0.9063879981677095,"(0.0, 0.0, 0.0, 0.0, 0.0, 0.0, 0.0, 0.0, 0.0)",0.018036,-0.015904,-0.235867,"(0.0, 0.0, 0.0, 0.0, 0.0, 0.0, 0.0, 0.0, 0.0)",0.046,-0.605,-9.796,"(0.0, 0.0, 0.0, 0.0, 0.0, 0.0, 0.0, 0.0, 0.0)",0,0,0,,0.2616,-0.2631,0.6432,"(0.0, 0.0, 0.0, 0.0, 0.0, 0.0, 0.0, 0.0, 0.0)","b'$VNYMR,-049.521,+006.621,+000.694,+00.2616,-00.2631,+00.6432,+00.046,-00.605,-09.796,+00.018036,-00.015904,-00.235867"
1666974629.208948,0,1666974629,208021163,IMU1_Frame,0,0,0,,0.029816479774505435,0.049618353545121036,-0.4211082626759561,0.9051612163760474,"(0.0, 0.0, 0.0, 0.0, 0.0, 0.0, 0.0, 0.0, 0.0)",0.045087,-0.00695,-0.237617,"(0.0, 0.0, 0.0, 0.0, 0.0, 0.0, 0.0, 0.0, 0.0)",0.419,-0.689,-8.883,"(0.0, 0.0, 0.0, 0.0, 0.0, 0.0, 0.0, 0.0, 0.0)",0,0,0,,0.2626,-0.2641,0.6565,"(0.0, 0.0, 0.0, 0.0, 0.0, 0.0, 0.0, 0.0, 0.0)","b'$VNYMR,-049.858,+006.600,+000.703,+00.2626,-00.2641,+00.6565,+00.419,-00.689,-08.883,+00.045087,-00.006950,-00.237617"
1666974629.2332587,0,1666974629,232503652,IMU1_Frame,0,0,0,,0.030120052504014515,0.04918694310057628,-0.42380296509894705,0.9039161873973254,"(0.0, 0.0, 0.0, 0.0, 0.0, 0.0, 0.0, 0.0, 0.0)",0.047787,-0.03431,-0.2368,"(0.0, 0.0, 0.0, 0.0, 0.0, 0.0, 0.0, 0.0, 0.0)",0.165,-0.822,-9.57,"(0.0, 0.0, 0.0, 0.0, 0.0, 0.0, 0.0, 0.0, 0.0)",0,0,0,,0.2673,-0.2642,0.6557,"(0.0, 0.0, 0.0, 0.0, 0.0, 0.0, 0.0, 0.0, 0.0)","b'$VNYMR,-050.197,+006.572,+000.736,+00.2673,-00.2642,+00.6557,+00.165,-00.822,-09.570,+00.047787,-00.034310,-00.236800"
1666974629.2634616,0,1666974629,262572050,IMU1_Frame,0,0,0,,0.030458204809057487,0.04880374222307536,-0.4265482450113203,0.9026334179403042,"(0.0, 0.0, 0.0, 0.0, 0.0, 0.0, 0.0, 0.0, 0.0)",0.047351,-0.010214,-0.242562,"(0.0, 0.0, 0.0, 0.0, 0.0, 0.0, 0.0, 0.0, 0.0)",-0.07,-1.375,-10.257,"(0.0, 0.0, 0.0, 0.0, 0.0, 0.0, 0.0, 0.0, 0.0)",0,0,0,,0.2644,-0.2701,0.6556,"(0.0, 0.0, 0.0, 0.0, 0.0, 0.0, 0.0, 0.0, 0.0)","b'$VNYMR,-050.543,+006.551,+000.770,+00.2644,-00.2701,+00.6556,-00.070,-01.375,-10.257,+00.047351,-00.010214,-00.242562"
1666974629.2909918,0,1666974629,290166854,IMU1_Frame,0,0,0,,0.03064667811589442,0.04854669912368478,-0.42933428775134,0.9013190714090683,"(0.0, 0.0, 0.0, 0.0, 0.0, 0.0, 0.0, 0.0, 0.0)",0.027186,-0.004289,-0.248912,"(0.0, 0.0, 0.0, 0.0, 0.0, 0.0, 0.0, 0.0, 0.0)",0.509,-1.483,-9.814,"(0.0, 0.0, 0.0, 0.0, 0.0, 0.0, 0.0, 0.0, 0.0)",0,0,0,,0.2663,-0.2702,0.6568,"(0.0, 0.0, 0.0, 0.0, 0.0, 0.0, 0.0, 0.0, 0.0)","b'$VNYMR,-050.896,+006.536,+000.782,+00.2663,-00.2702,+00.6568,+00.509,-01.483,-09.814,+00.027186,-00.004289,-00.248912"
1666974629.334023,0,1666974629,306441307,IMU1_Frame,0,0,0,,0.030578577672725198,0.048430212425603573,-0.432180110380659,0.89996656454742,"(0.0, 0.0, 0.0, 0.0, 0.0, 0.0, 0.0, 0.0, 0.0)",0.001808,-0.012744,-0.25328,"(0.0, 0.0, 0.0, 0.0, 0.0, 0.0, 0.0, 0.0, 0.0)",0.349,-1.313,-9.767,"(0.0, 0.0, 0.0, 0.0, 0.0, 0.0, 0.0, 0.0, 0.0)",0,0,0,,0.2645,-0.2592,0.64,"(0.0, 0.0, 0.0, 0.0, 0.0, 0.0, 0.0, 0.0, 0.0)","b'$VNYMR,-051.259,+006.523,+000.760,+00.2645,-00.2592,+00.6400,+00.349,-01.313,-09.767,+00.001808,-00.012744,-00.253280"
1666974629.3785,0,1666974629,334914922,IMU1_Frame,0,0,0,,0.03038995797911819,0.04842087218662606,-0.43505247144643117,0.8985884579044325,"(0.0, 0.0, 0.0, 0.0, 0.0, 0.0, 0.0, 0.0, 0.0)",-0.004467,-0.010165,-0.257148,"(0.0, 0.0, 0.0, 0.0, 0.0, 0.0, 0.0, 0.0, 0.0)",0.04,-1.257,-10.259,"(0.0, 0.0, 0.0, 0.0, 0.0, 0.0, 0.0, 0.0, 0.0)",0,0,0,,0.2665,-0.2523,0.6466,"(0.0, 0.0, 0.0, 0.0, 0.0, 0.0, 0.0, 0.0, 0.0)","b'$VNYMR,-051.627,+006.515,+000.720,+00.2665,-00.2523,+00.6466,+00.040,-01.257,-10.259,-00.004467,-00.010165,-00.257148"
1666974629.378536,0,1666974629,357651472,IMU1_Frame,0,0,0,,0.03017813106088023,0.04846340973397068,-0.43792545932202914,0.8971966731994826,"(0.0, 0.0, 0.0, 0.0, 0.0, 0.0, 0.0, 0.0, 0.0)",-0.000977,0.004351,-0.259031,"(0.0, 0.0, 0.0, 0.0, 0.0, 0.0, 0.0, 0.0, 0.0)",-0.12,-0.988,-10.344,"(0.0, 0.0, 0.0, 0.0, 0.0, 0.0, 0.0, 0.0, 0.0)",0,0,0,,0.2645,-0.2562,0.6477,"(0.0, 0.0, 0.0, 0.0, 0.0, 0.0, 0.0, 0.0, 0.0)","b'$VNYMR,-051.996,+006.511,+000.675,+00.2645,-00.2562,+00.6477,-00.120,-00.988,-10.344,-00.000977,+00.004351,-00.259031"
1666974629.4230137,0,1666974629,385185480,IMU1_Frame,0,0,0,,0.030020497398985557,0.04852037458388727,-0.44077973162898626,0.8958000732145734,"(0.0, 0.0, 0.0, 0.0, 0.0, 0.0, 0.0, 0.0, 0.0)",0.002908,0.00432,-0.254885,"(0.0, 0.0, 0.0, 0.0, 0.0, 0.0, 0.0, 0.0, 0.0)",0.381,-1.111,-9.618,"(0.0, 0.0, 0.0, 0.0, 0.0, 0.0, 0.0, 0.0, 0.0)",0,0,0,,0.2635,-0.2641,0.6522,"(0.0, 0.0, 0.0, 0.0, 0.0, 0.0, 0.0, 0.0, 0.0)","b'$VNYMR,-052.363,+006.511,+000.635,+00.2635,-00.2641,+00.6522,+00.381,-01.111,-09.618,+00.002908,+00.004320,-00.254885"
1666974629.423065,0,1666974629,406763076,IMU1_Frame,0,0,0,,0.029852982863598203,0.04852607547938423,-0.44357678342888557,0.894423644933204,"(0.0, 0.0, 0.0, 0.0, 0.0, 0.0, 0.0, 0.0, 0.0)",-0.001097,-0.008919,-0.251376,"(0.0, 0.0, 0.0, 0.0, 0.0, 0.0, 0.0, 0.0, 0.0)",0.48,-1.261,-9.605,"(0.0, 0.0, 0.0, 0.0, 0.0, 0.0, 0.0, 0.0, 0.0)",0,0,0,,0.2664,-0.2583,0.6522,"(0.0, 0.0, 0.0, 0.0, 0.0, 0.0, 0.0, 0.0, 0.0)","b'$VNYMR,-052.723,+006.505,+000.597,+00.2664,-00.2583,+00.6522,+00.480,-01.261,-09.605,-00.001097,-00.008919,-00.251376"
1666974629.466266,0,1666974629,432798624,IMU1_Frame,0,0,0,,0.029704440337975202,0.04851433915647499,-0.44635538477964476,0.8930458418237182,"(0.0, 0.0, 0.0, 0.0, 0.0, 0.0, 0.0, 0.0, 0.0)",0.001659,-0.014428,-0.246191,"(0.0, 0.0, 0.0, 0.0, 0.0, 0.0, 0.0, 0.0, 0.0)",-0.04,-1.076,-10.504,"(0.0, 0.0, 0.0, 0.0, 0.0, 0.0, 0.0, 0.0, 0.0)",0,0,0,,0.2645,-0.2542,0.6344,"(0.0, 0.0, 0.0, 0.0, 0.0, 0.0, 0.0, 0.0, 0.0)","b'$VNYMR,-053.081,+006.498,+000.562,+00.2645,-00.2542,+00.6344,-00.040,-01.076,-10.504,+00.001659,-00.014428,-00.246191"
1666974629.466296,0,1666974629,458399772,IMU1_Frame,0,0,0,,0.0296630335115602,0.04848939420990384,-0.4490951247805988,0.8916739605878076,"(0.0, 0.0, 0.0, 0.0, 0.0, 0.0, 0.0, 0.0, 0.0)",0.015263,0.001739,-0.244611,"(0.0, 0.0, 0.0, 0.0, 0.0, 0.0, 0.0, 0.0, 0.0)",-0.049,-0.804,-10.268,"(0.0, 0.0, 0.0, 0.0, 0.0, 0.0, 0.0, 0.0, 0.0)",0,0,0,,0.2655,-0.2612,0.6544,"(0.0, 0.0, 0.0, 0.0, 0.0, 0.0, 0.0, 0.0, 0.0)","b'$VNYMR,-053.434,+006.495,+000.539,+00.2655,-00.2612,+00.6544,-00.049,-00.804,-10.268,+00.015263,+00.001739,-00.244611"
1666974629.5099678,0,1666974629,486218214,IMU1_Frame,0,0,0,,0.029770990730436844,0.04843854681676593,-0.45179027102655206,0.8903105897937882,"(0.0, 0.0, 0.0, 0.0, 0.0, 0.0, 0.0, 0.0, 0.0)",0.026958,0.010357,-0.242743,"(0.0, 0.0, 0.0, 0.0, 0.0, 0.0, 0.0, 0.0, 0.0)",0.197,-0.885,-10.347,"(0.0, 0.0, 0.0, 0.0, 0.0, 0.0, 0.0, 0.0, 0.0)",0,0,0,,0.2646,-0.2532,0.6477,"(0.0, 0.0, 0.0, 0.0, 0.0, 0.0, 0.0, 0.0, 0.0)","b'$VNYMR,-053.781,+006.497,+000.533,+00.2646,-00.2532,+00.6477,+00.197,-00.885,-10.347,+00.026958,+00.010357,-00.242743"
1666974629.510604,0,1666974629,508200883,IMU1_Frame,0,0,0,,0.029905634865542825,0.04842284314605521,-0.4544652356892046,0.8889444475415192,"(0.0, 0.0, 0.0, 0.0, 0.0, 0.0, 0.0, 0.0, 0.0)",0.020031,0.010297,-0.24207,"(0.0, 0.0, 0.0, 0.0, 0.0, 0.0, 0.0, 0.0, 0.0)",0.314,-1.167,-10.147,"(0.0, 0.0, 0.0, 0.0, 0.0, 0.0, 0.0, 0.0, 0.0)",0,0,0,,0.2665,-0.2523,0.6511,"(0.0, 0.0, 0.0, 0.0, 0.0, 0.0, 0.0, 0.0, 0.0)","b'$VNYMR,-054.126,+006.504,+000.528,+00.2665,-00.2523,+00.6511,+00.314,-01.167,-10.147,+00.020031,+00.010297,-00.242070"
1666974629.5541017,0,1666974629,532530546,IMU1_Frame,0,0,0,,0.02995236683541978,0.04850109244016264,-0.45713692788373,0.8875676475165669,"(0.0, 0.0, 0.0, 0.0, 0.0, 0.0, 0.0, 0.0, 0.0)",0.010297,0.015335,-0.244382,"(0.0, 0.0, 0.0, 0.0, 0.0, 0.0, 0.0, 0.0, 0.0)",0.216,-1.253,-10.513,"(0.0, 0.0, 0.0, 0.0, 0.0, 0.0, 0.0, 0.0, 0.0)",0,0,0,,0.2712,-0.2584,0.658,"(0.0, 0.0, 0.0, 0.0, 0.0, 0.0, 0.0, 0.0, 0.0)","b'$VNYMR,-054.472,+006.516,+000.509,+00.2712,-00.2584,+00.6580,+00.216,-01.253,-10.513,+00.010297,+00.015335,-00.244382"
1666974629.568805,0,1666974629,568050861,IMU1_Frame,0,0,0,,0.029908746958444938,0.04868557460024296,-0.45981232391203103,0.8861759466718997,"(0.0, 0.0, 0.0, 0.0, 0.0, 0.0, 0.0, 0.0, 0.0)",0.002374,0.020673,-0.243186,"(0.0, 0.0, 0.0, 0.0, 0.0, 0.0, 0.0, 0.0, 0.0)",0.557,-0.915,-9.499,"(0.0, 0.0, 0.0, 0.0, 0.0, 0.0, 0.0, 0.0, 0.0)",0,0,0,,0.2703,-0.2445,0.6412,"(0.0, 0.0, 0.0, 0.0, 0.0, 0.0, 0.0, 0.0, 0.0)","b'$VNYMR,-054.820,+006.534,+000.475,+00.2703,-00.2445,+00.6412,+00.557,-00.915,-09.499,+00.002374,+00.020673,-00.243186"
1666974629.6101792,0,1666974629,583571910,IMU1_Frame,0,0,0,,0.029799954924152564,0.048876101632161995,-0.46247324611869445,0.8847833554041342,"(0.0, 0.0, 0.0, 0.0, 0.0, 0.0, 0.0, 0.0, 0.0)",-0.001749,0.008988,-0.241378,"(0.0, 0.0, 0.0, 0.0, 0.0, 0.0, 0.0, 0.0, 0.0)",0.582,-1.118,-9.303,"(0.0, 0.0, 0.0, 0.0, 0.0, 0.0, 0.0, 0.0, 0.0)",0,0,0,,0.2712,-0.2584,0.6569,"(0.0, 0.0, 0.0, 0.0, 0.0, 0.0, 0.0, 0.0, 0.0)","b'$VNYMR,-055.167,+006.549,+000.434,+00.2712,-00.2584,+00.6569,+00.582,-01.118,-09.303,-00.001749,+00.008988,-00.241378"
1666974629.610455,0,1666974629,607769966,IMU1_Frame,0,0,0,,0.02970519028889255,0.04909059458155153,-0.46513689070471015,0.8833772626115554,"(0.0, 0.0, 0.0, 0.0, 0.0, 0.0, 0.0, 0.0, 0.0)",-0.000281,0.012063,-0.24105,"(0.0, 0.0, 0.0, 0.0, 0.0, 0.0, 0.0, 0.0, 0.0)",0.456,-0.899,-9.131,"(0.0, 0.0, 0.0, 0.0, 0.0, 0.0, 0.0, 0.0, 0.0)",0,0,0,,0.2731,-0.2564,0.6603,"(0.0, 0.0, 0.0, 0.0, 0.0, 0.0, 0.0, 0.0, 0.0)","b'$VNYMR,-055.515,+006.567,+000.393,+00.2731,-00.2564,+00.6603,+00.456,-00.899,-09.131,-00.000281,+00.012063,-00.241050"
1666974629.654192,0,1666974629,632966756,IMU1_Frame,0,0,0,,0.02963055443834808,0.04926667759910604,-0.4677984430927528,0.8819634013733327,"(0.0, 0.0, 0.0, 0.0, 0.0, 0.0, 0.0, 0.0, 0.0)",0.004676,0.012527,-0.242787,"(0.0, 0.0, 0.0, 0.0, 0.0, 0.0, 0.0, 0.0, 0.0)",0.33,-0.956,-9.097,"(0.0, 0.0, 0.0, 0.0, 0.0, 0.0, 0.0, 0.0, 0.0)",0,0,0,,0.276,-0.2526,0.6581,"(0.0, 0.0, 0.0, 0.0, 0.0, 0.0, 0.0, 0.0, 0.0)","b'$VNYMR,-055.863,+006.582,+000.356,+00.2760,-00.2526,+00.6581,+00.330,-00.956,-09.097,+00.004676,+00.012527,-00.242787"
1666974629.6584477,0,1666974629,657509803,IMU1_Frame,0,0,0,,0.02953622779089677,0.049385752153287873,-0.47045750260344527,0.880544375358941,"(0.0, 0.0, 0.0, 0.0, 0.0, 0.0, 0.0, 0.0, 0.0)",0.003695,0.005143,-0.242281,"(0.0, 0.0, 0.0, 0.0, 0.0, 0.0, 0.0, 0.0, 0.0)",0.675,-1.167,-9.302,"(0.0, 0.0, 0.0, 0.0, 0.0, 0.0, 0.0, 0.0, 0.0)",0,0,0,,0.2752,-0.2346,0.6491,"(0.0, 0.0, 0.0, 0.0, 0.0, 0.0, 0.0, 0.0, 0.0)","b'$VNYMR,-056.211,+006.590,+000.320,+00.2752,-00.2346,+00.6491,+00.675,-01.167,-09.302,+00.003695,+00.005143,-00.242281"
1666974629.7020085,0,1666974629,682853460,IMU1_Frame,0,0,0,,0.02939540664830245,0.04945220669739311,-0.4731284007857855,0.8791131358878814,"(0.0, 0.0, 0.0, 0.0, 0.0, 0.0, 0.0, 0.0, 0.0)",0.001008,-0.000666,-0.242415,"(0.0, 0.0, 0.0, 0.0, 0.0, 0.0, 0.0, 0.0, 0.0)",0.451,-1.043,-9.297,"(0.0, 0.0, 0.0, 0.0, 0.0, 0.0, 0.0, 0.0, 0.0)",0,0,0,,0.2713,-0.2405,0.6379,"(0.0, 0.0, 0.0, 0.0, 0.0, 0.0, 0.0, 0.0, 0.0)","b'$VNYMR,-056.561,+006.590,+000.282,+00.2713,-00.2405,+00.6379,+00.451,-01.043,-09.297,+00.001008,-00.000666,-00.242415"
1666974629.7471464,0,1666974629,706988573,IMU1_Frame,0,0,0,,0.029210045362724483,0.0494354583362493,-0.47580499918851443,0.8776744906035552,"(0.0, 0.0, 0.0, 0.0, 0.0, 0.0, 0.0, 0.0, 0.0)",0.001665,-0.002591,-0.24628,"(0.0, 0.0, 0.0, 0.0, 0.0, 0.0, 0.0, 0.0, 0.0)",0.453,-0.92,-9.404,"(0.0, 0.0, 0.0, 0.0, 0.0, 0.0, 0.0, 0.0, 0.0)",0,0,0,,0.2787,-0.2556,0.6461,"(0.0, 0.0, 0.0, 0.0, 0.0, 0.0, 0.0, 0.0, 0.0)","b'$VNYMR,-056.912,+006.579,+000.244,+00.2787,-00.2556,+00.6461,+00.453,-00.920,-09.404,+00.001665,-00.002591,-00.246280"
1666974629.7474577,0,1666974629,733133316,IMU1_Frame,0,0,0,,0.029073664069232757,0.04934398038082786,-0.478497520721716,0.8762191599827847,"(0.0, 0.0, 0.0, 0.0, 0.0, 0.0, 0.0, 0.0, 0.0)",0.008917,-0.012312,-0.246156,"(0.0, 0.0, 0.0, 0.0, 0.0, 0.0, 0.0, 0.0, 0.0)",0.261,-0.954,-9.302,"(0.0, 0.0, 0.0, 0.0, 0.0, 0.0, 0.0, 0.0, 0.0)",0,0,0,,0.275,-0.2575,0.657,"(0.0, 0.0, 0.0, 0.0, 0.0, 0.0, 0.0, 0.0, 0.0)","b'$VNYMR,-057.265,+006.563,+000.215,+00.2750,-00.2575,+00.6570,+00.261,-00.954,-09.302,+00.008917,-00.012312,-00.246156"
1666974629.79001,0,1666974629,758658647,IMU1_Frame,0,0,0,,0.029024925136289244,0.04917555709562009,-0.4812147786839889,0.8747409074013218,"(0.0, 0.0, 0.0, 0.0, 0.0, 0.0, 0.0, 0.0, 0.0)",0.019994,-0.00965,-0.249188,"(0.0, 0.0, 0.0, 0.0, 0.0, 0.0, 0.0, 0.0, 0.0)",0.337,-0.814,-9.206,"(0.0, 0.0, 0.0, 0.0, 0.0, 0.0, 0.0, 0.0, 0.0)",0,0,0,,0.2741,-0.2555,0.6614,"(0.0, 0.0, 0.0, 0.0, 0.0, 0.0, 0.0, 0.0, 0.0)","b'$VNYMR,-057.621,+006.544,+000.199,+00.2741,-00.2555,+00.6614,+00.337,-00.814,-09.206,+00.019994,-00.009650,-00.249188"
1666974629.7901108,0,1666974629,782935142,IMU1_Frame,0,0,0,,0.029093583796775735,0.04891249409811335,-0.48395829630065884,0.8732385119454626,"(0.0, 0.0, 0.0, 0.0, 0.0, 0.0, 0.0, 0.0, 0.0)",0.030618,-0.021245,-0.250843,"(0.0, 0.0, 0.0, 0.0, 0.0, 0.0, 0.0, 0.0, 0.0)",0.125,-0.8,-9.724,"(0.0, 0.0, 0.0, 0.0, 0.0, 0.0, 0.0, 0.0, 0.0)",0,0,0,,0.2779,-0.2496,0.656,"(0.0, 0.0, 0.0, 0.0, 0.0, 0.0, 0.0, 0.0, 0.0)","b'$VNYMR,-057.980,+006.522,+000.200,+00.2779,-00.2496,+00.6560,+00.125,-00.800,-09.724,+00.030618,-00.021245,-00.250843"
1666974629.8339899,0,1666974629,807433366,IMU1_Frame,0,0,0,,0.029300001638429655,0.04861170396328686,-0.4867105904150041,0.8717173930349513,"(0.0, 0.0, 0.0, 0.0, 0.0, 0.0, 0.0, 0.0, 0.0)",0.043686,-0.011667,-0.250093,"(0.0, 0.0, 0.0, 0.0, 0.0, 0.0, 0.0, 0.0, 0.0)",0.119,-0.696,-9.56,"(0.0, 0.0, 0.0, 0.0, 0.0, 0.0, 0.0, 0.0, 0.0)",0,0,0,,0.2741,-0.2436,0.6513,"(0.0, 0.0, 0.0, 0.0, 0.0, 0.0, 0.0, 0.0, 0.0)","b'$VNYMR,-058.340,+006.504,+000.217,+00.2741,-00.2436,+00.6513,+00.119,-00.696,-09.560,+00.043686,-00.011667,-00.250093"
1666974629.8350945,0,1666974629,833415746,IMU1_Frame,0,0,0,,0.02955601646176182,0.04831126802619023,-0.48946706270148305,0.8701807041086328,"(0.0, 0.0, 0.0, 0.0, 0.0, 0.0, 0.0, 0.0, 0.0)",0.044423,-0.009463,-0.248797,"(0.0, 0.0, 0.0, 0.0, 0.0, 0.0, 0.0, 0.0, 0.0)",0.209,-0.802,-9.817,"(0.0, 0.0, 0.0, 0.0, 0.0, 0.0, 0.0, 0.0, 0.0)",0,0,0,,0.2741,-0.2406,0.6413,"(0.0, 0.0, 0.0, 0.0, 0.0, 0.0, 0.0, 0.0, 0.0)","b'$VNYMR,-058.701,+006.489,+000.239,+00.2741,-00.2406,+00.6413,+00.209,-00.802,-09.817,+00.044423,-00.009463,-00.248797"
1666974629.8779652,0,1666974629,857548475,IMU1_Frame,0,0,0,,0.029794414517164608,0.04806882347090889,-0.4922229676531571,0.8686300888113542,"(0.0, 0.0, 0.0, 0.0, 0.0, 0.0, 0.0, 0.0, 0.0)",0.03892,-0.007893,-0.251689,"(0.0, 0.0, 0.0, 0.0, 0.0, 0.0, 0.0, 0.0, 0.0)",0.095,-0.852,-10.695,"(0.0, 0.0, 0.0, 0.0, 0.0, 0.0, 0.0, 0.0, 0.0)",0,0,0,,0.276,-0.2446,0.6559,"(0.0, 0.0, 0.0, 0.0, 0.0, 0.0, 0.0, 0.0, 0.0)","b'$VNYMR,-059.063,+006.479,+000.256,+00.2760,-00.2446,+00.6559,+00.095,-00.852,-10.695,+00.038920,-00.007893,-00.251689"
1666974629.9237623,0,1666974629,883523941,IMU1_Frame,0,0,0,,0.029992025143962132,0.0479182504365179,-0.49493831145423967,0.8670873010012852,"(0.0, 0.0, 0.0, 0.0, 0.0, 0.0, 0.0, 0.0, 0.0)",0.027798,-0.000578,-0.247533,"(0.0, 0.0, 0.0, 0.0, 0.0, 0.0, 0.0, 0.0, 0.0)",-0.001,-0.875,-10.481,"(0.0, 0.0, 0.0, 0.0, 0.0, 0.0, 0.0, 0.0, 0.0)",0,0,0,,0.2779,-0.2506,0.6637,"(0.0, 0.0, 0.0, 0.0, 0.0, 0.0, 0.0, 0.0, 0.0)","b'$VNYMR,-059.421,+006.476,+000.264,+00.2779,-00.2506,+00.6637,-00.001,-00.875,-10.481,+00.027798,-00.000578,-00.247533"
1666974629.9238727,0,1666974629,908047437,IMU1_Frame,0,0,0,,0.030099224714331477,0.047878955872465226,-0.4975958645515481,0.8655633990860265,"(0.0, 0.0, 0.0, 0.0, 0.0, 0.0, 0.0, 0.0, 0.0)",0.016267,0.003182,-0.24399,"(0.0, 0.0, 0.0, 0.0, 0.0, 0.0, 0.0, 0.0, 0.0)",0.294,-1.205,-10.293,"(0.0, 0.0, 0.0, 0.0, 0.0, 0.0, 0.0, 0.0, 0.0)",0,0,0,,0.2724,-0.2415,0.6656,"(0.0, 0.0, 0.0, 0.0, 0.0, 0.0, 0.0, 0.0, 0.0)","b'$VNYMR,-059.773,+006.479,+000.257,+00.2724,-00.2415,+00.6656,+00.294,-01.205,-10.293,+00.016267,+00.003182,-00.243990"
1666974629.9663284,0,1666974629,932685613,IMU1_Frame,0,0,0,,0.030110718291920392,0.04790506020358021,-0.5002053575998403,0.8640561614150158,"(0.0, 0.0, 0.0, 0.0, 0.0, 0.0, 0.0, 0.0, 0.0)",0.00907,0.003546,-0.240543,"(0.0, 0.0, 0.0, 0.0, 0.0, 0.0, 0.0, 0.0, 0.0)",0.25,-0.991,-10.325,"(0.0, 0.0, 0.0, 0.0, 0.0, 0.0, 0.0, 0.0, 0.0)",0,0,0,,0.2743,-0.2296,0.649,"(0.0, 0.0, 0.0, 0.0, 0.0, 0.0, 0.0, 0.0, 0.0)","b'$VNYMR,-060.120,+006.483,+000.237,+00.2743,-00.2296,+00.6490,+00.250,-00.991,-10.325,+00.009070,+00.003546,-00.240543"
1666974629.9664485,0,1666974629,958353042,IMU1_Frame,0,0,0,,0.030081674413079636,0.04793533895414901,-0.5027714185422529,0.8625648942780287,"(0.0, 0.0, 0.0, 0.0, 0.0, 0.0, 0.0, 0.0, 0.0)",0.00847,0.000814,-0.236308,"(0.0, 0.0, 0.0, 0.0, 0.0, 0.0, 0.0, 0.0, 0.0)",0.262,-1.028,-10.022,"(0.0, 0.0, 0.0, 0.0, 0.0, 0.0, 0.0, 0.0, 0.0)",0,0,0,,0.2743,-0.2296,0.6479,"(0.0, 0.0, 0.0, 0.0, 0.0, 0.0, 0.0, 0.0, 0.0)","b'$VNYMR,-060.462,+006.485,+000.213,+00.2743,-00.2296,+00.6479,+00.262,-01.028,-10.022,+00.008470,+00.000814,-00.236308"
1666974630.0101151,0,1666974629,983388423,IMU1_Frame,0,0,0,,0.0300514896850756,0.04791672078750769,-0.5052978749013087,0.8610893992245527,"(0.0, 0.0, 0.0, 0.0, 0.0, 0.0, 0.0, 0.0, 0.0)",0.013926,-0.000875,-0.233091,"(0.0, 0.0, 0.0, 0.0, 0.0, 0.0, 0.0, 0.0, 0.0)",0.15,-1.09,-9.831,"(0.0, 0.0, 0.0, 0.0, 0.0, 0.0, 0.0, 0.0, 0.0)",0,0,0,,0.2771,-0.2387,0.6625,"(0.0, 0.0, 0.0, 0.0, 0.0, 0.0, 0.0, 0.0, 0.0)","b'$VNYMR,-060.799,+006.482,+000.192,+00.2771,-00.2387,+00.6625,+00.150,-01.090,-09.831,+00.013926,-00.000875,-00.233091"
1666974630.0103145,0,1666974630,8544445,IMU1_Frame,0,0,0,,0.030062076564099392,0.047834280495764527,-0.5077942845186579,0.8596238234089905,"(0.0, 0.0, 0.0, 0.0, 0.0, 0.0, 0.0, 0.0, 0.0)",0.019346,-0.004756,-0.231849,"(0.0, 0.0, 0.0, 0.0, 0.0, 0.0, 0.0, 0.0, 0.0)",0.154,-1.184,-9.558,"(0.0, 0.0, 0.0, 0.0, 0.0, 0.0, 0.0, 0.0, 0.0)",0,0,0,,0.2771,-0.2307,0.6569,"(0.0, 0.0, 0.0, 0.0, 0.0, 0.0, 0.0, 0.0, 0.0)","b'$VNYMR,-061.132,+006.475,+000.179,+00.2771,-00.2307,+00.6569,+00.154,-01.184,-09.558,+00.019346,-00.004756,-00.231849"
1666974630.0542564,0,1666974630,40571689,IMU1_Frame,0,0,0,,0.030085791651282837,0.0476733000688772,-0.5102831390562406,0.8581568735354672,"(0.0, 0.0, 0.0, 0.0, 0.0, 0.0, 0.0, 0.0, 0.0)",0.022204,-0.006661,-0.232611,"(0.0, 0.0, 0.0, 0.0, 0.0, 0.0, 0.0, 0.0, 0.0)",0.063,-1.18,-10.029,"(0.0, 0.0, 0.0, 0.0, 0.0, 0.0, 0.0, 0.0, 0.0)",0,0,0,,0.2781,-0.2317,0.6614,"(0.0, 0.0, 0.0, 0.0, 0.0, 0.0, 0.0, 0.0, 0.0)","b'$VNYMR,-061.464,+006.461,+000.172,+00.2781,-00.2317,+00.6614,+00.063,-01.180,-10.029,+00.022204,-00.006661,-00.232611"
1666974630.0586953,0,1666974630,57785511,IMU1_Frame,0,0,0,,0.03017134810073814,0.04749542414199117,-0.512792606507326,0.8566665729154951,"(0.0, 0.0, 0.0, 0.0, 0.0, 0.0, 0.0, 0.0, 0.0)",0.025532,-0.005515,-0.236714,"(0.0, 0.0, 0.0, 0.0, 0.0, 0.0, 0.0, 0.0, 0.0)",0.093,-1.136,-9.722,"(0.0, 0.0, 0.0, 0.0, 0.0, 0.0, 0.0, 0.0, 0.0)",0,0,0,,0.28,-0.2298,0.6625,"(0.0, 0.0, 0.0, 0.0, 0.0, 0.0, 0.0, 0.0, 0.0)","b'$VNYMR,-061.799,+006.449,+000.172,+00.2800,-00.2298,+00.6625,+00.093,-01.136,-09.722,+00.025532,-00.005515,-00.236714"
1666974630.1028347,0,1666974630,83673000,IMU1_Frame,0,0,0,,0.030320119257389533,0.04731953499431766,-0.5153216153836593,0.8551521412558791,"(0.0, 0.0, 0.0, 0.0, 0.0, 0.0, 0.0, 0.0, 0.0)",0.032009,-0.00432,-0.23723,"(0.0, 0.0, 0.0, 0.0, 0.0, 0.0, 0.0, 0.0, 0.0)",0.183,-1.264,-9.364,"(0.0, 0.0, 0.0, 0.0, 0.0, 0.0, 0.0, 0.0, 0.0)",0,0,0,,0.2744,-0.2167,0.6422,"(0.0, 0.0, 0.0, 0.0, 0.0, 0.0, 0.0, 0.0, 0.0)","b'$VNYMR,-062.137,+006.441,+000.178,+00.2744,-00.2167,+00.6422,+00.183,-01.264,-09.364,+00.032009,-00.004320,-00.237230"
1666974630.14582,0,1666974630,108206510,IMU1_Frame,0,0,0,,0.030547837339255913,0.04713549679037511,-0.5178857113407909,0.8536038100695557,"(0.0, 0.0, 0.0, 0.0, 0.0, 0.0, 0.0, 0.0, 0.0)",0.037184,-0.000646,-0.24028,"(0.0, 0.0, 0.0, 0.0, 0.0, 0.0, 0.0, 0.0, 0.0)",0.214,-1.034,-9.984,"(0.0, 0.0, 0.0, 0.0, 0.0, 0.0, 0.0, 0.0, 0.0)",0,0,0,,0.2818,-0.2378,0.6594,"(0.0, 0.0, 0.0, 0.0, 0.0, 0.0, 0.0, 0.0, 0.0)","b'$VNYMR,-062.480,+006.437,+000.192,+00.2818,-00.2378,+00.6594,+00.214,-01.034,-09.984,+00.037184,-00.000646,-00.240280"
1666974630.1458604,0,1666974630,133541107,IMU1_Frame,0,0,0,,0.030815595413787224,0.04694588050761076,-0.5204834719140081,0.8520231445489018,"(0.0, 0.0, 0.0, 0.0, 0.0, 0.0, 0.0, 0.0, 0.0)",0.038604,0.002,-0.243986,"(0.0, 0.0, 0.0, 0.0, 0.0, 0.0, 0.0, 0.0, 0.0)",0.132,-1.313,-9.998,"(0.0, 0.0, 0.0, 0.0, 0.0, 0.0, 0.0, 0.0, 0.0)",0,0,0,,0.2818,-0.2378,0.6616,"(0.0, 0.0, 0.0, 0.0, 0.0, 0.0, 0.0, 0.0, 0.0)","b'$VNYMR,-062.828,+006.435,+000.210,+00.2818,-00.2378,+00.6616,+00.132,-01.313,-09.998,+00.038604,+00.002000,-00.243986"
1666974630.1898248,0,1666974630,157452821,IMU1_Frame,0,0,0,,0.03100370499705741,0.04680338990459299,-0.5231238491092686,0.8504055805690584,"(0.0, 0.0, 0.0, 0.0, 0.0, 0.0, 0.0, 0.0, 0.0)",0.027184,-0.002411,-0.249895,"(0.0, 0.0, 0.0, 0.0, 0.0, 0.0, 0.0, 0.0, 0.0)",0.058,-1.517,-9.971,"(0.0, 0.0, 0.0, 0.0, 0.0, 0.0, 0.0, 0.0, 0.0)",0,0,0,,0.2819,-0.2308,0.6593,"(0.0, 0.0, 0.0, 0.0, 0.0, 0.0, 0.0, 0.0, 0.0)","b'$VNYMR,-063.183,+006.433,+000.217,+00.2819,-00.2308,+00.6593,+00.058,-01.517,-09.971,+00.027184,-00.002411,-00.249895"
1666974630.1898725,0,1666974630,183530330,IMU1_Frame,0,0,0,,0.031038943631656806,0.04675436735626371,-0.5258098906941581,0.8487488273685825,"(0.0, 0.0, 0.0, 0.0, 0.0, 0.0, 0.0, 0.0, 0.0)",0.012488,0.00037,-0.253543,"(0.0, 0.0, 0.0, 0.0, 0.0, 0.0, 0.0, 0.0, 0.0)",0.136,-1.25,-9.76,"(0.0, 0.0, 0.0, 0.0, 0.0, 0.0, 0.0, 0.0, 0.0)",0,0,0,,0.2848,-0.22,0.6549,"(0.0, 0.0, 0.0, 0.0, 0.0, 0.0, 0.0, 0.0, 0.0)","b'$VNYMR,-063.546,+006.431,+000.203,+00.2848,-00.2200,+00.6549,+00.136,-01.250,-09.760,+00.012488,+00.000370,-00.253543"
1666974630.2340503,0,1666974630,208632469,IMU1_Frame,0,0,0,,0.030958553600444534,0.04679823848794018,-0.5284980347116867,0.8470781074607461,"(0.0, 0.0, 0.0, 0.0, 0.0, 0.0, 0.0, 0.0, 0.0)",0.002227,0.001409,-0.256413,"(0.0, 0.0, 0.0, 0.0, 0.0, 0.0, 0.0, 0.0, 0.0)",0.262,-1.267,-9.338,"(0.0, 0.0, 0.0, 0.0, 0.0, 0.0, 0.0, 0.0, 0.0)",0,0,0,,0.2818,-0.2279,0.6427,"(0.0, 0.0, 0.0, 0.0, 0.0, 0.0, 0.0, 0.0, 0.0)","b'$VNYMR,-063.911,+006.431,+000.172,+00.2818,-00.2279,+00.6427,+00.262,-01.267,-09.338,+00.002227,+00.001409,-00.256413"
1666974630.2351892,0,1666974630,233220338,IMU1_Frame,0,0,0,,0.030765539660592776,0.046873033590342346,-0.5311986545618177,0.8453900813725849,"(0.0, 0.0, 0.0, 0.0, 0.0, 0.0, 0.0, 0.0, 0.0)",-0.005226,-0.001237,-0.256756,"(0.0, 0.0, 0.0, 0.0, 0.0, 0.0, 0.0, 0.0, 0.0)",0.047,-1.062,-8.797,"(0.0, 0.0, 0.0, 0.0, 0.0, 0.0, 0.0, 0.0, 0.0)",0,0,0,,0.2809,-0.2239,0.6437,"(0.0, 0.0, 0.0, 0.0, 0.0, 0.0, 0.0, 0.0, 0.0)","b'$VNYMR,-064.279,+006.427,+000.128,+00.2809,-00.2239,+00.6437,+00.047,-01.062,-08.797,-00.005226,-00.001237,-00.256756"
1666974630.2789476,0,1666974630,263949632,IMU1_Frame,0,0,0,,0.03051003465843655,0.046917437194130364,-0.5338718920051333,0.8437112626954408,"(0.0, 0.0, 0.0, 0.0, 0.0, 0.0, 0.0, 0.0, 0.0)",-0.002542,-0.003522,-0.256474,"(0.0, 0.0, 0.0, 0.0, 0.0, 0.0, 0.0, 0.0, 0.0)",0.296,-1.036,-9.721,"(0.0, 0.0, 0.0, 0.0, 0.0, 0.0, 0.0, 0.0, 0.0)",0,0,0,,0.2828,-0.2358,0.6583,"(0.0, 0.0, 0.0, 0.0, 0.0, 0.0, 0.0, 0.0, 0.0)","b'$VNYMR,-064.644,+006.416,+000.080,+00.2828,-00.2358,+00.6583,+00.296,-01.036,-09.721,-00.002542,-00.003522,-00.256474"
1666974630.3224063,0,1666974630,290024042,IMU1_Frame,0,0,0,,0.03031438614851106,0.0468641894645073,-0.5365315659216753,0.8420324604835069,"(0.0, 0.0, 0.0, 0.0, 0.0, 0.0, 0.0, 0.0, 0.0)",0.000478,-0.015965,-0.252302,"(0.0, 0.0, 0.0, 0.0, 0.0, 0.0, 0.0, 0.0, 0.0)",-0.029,-1.066,-9.451,"(0.0, 0.0, 0.0, 0.0, 0.0, 0.0, 0.0, 0.0, 0.0)",0,0,0,,0.2818,-0.2348,0.6582,"(0.0, 0.0, 0.0, 0.0, 0.0, 0.0, 0.0, 0.0, 0.0)","b'$VNYMR,-065.007,+006.399,+000.044,+00.2818,-00.2348,+00.6582,-00.029,-01.066,-09.451,+00.000478,-00.015965,-00.252302"
1666974630.3224726,0,1666974630,306849241,IMU1_Frame,0,0,0,,0.030202586086331164,0.04673813071749553,-0.5391551361254187,0.8403660453161547,"(0.0, 0.0, 0.0, 0.0, 0.0, 0.0, 0.0, 0.0, 0.0)",0.008472,-0.018793,-0.247403,"(0.0, 0.0, 0.0, 0.0, 0.0, 0.0, 0.0, 0.0, 0.0)",-0.054,-1.176,-9.394,"(0.0, 0.0, 0.0, 0.0, 0.0, 0.0, 0.0, 0.0, 0.0)",0,0,0,,0.2819,-0.2318,0.6604,"(0.0, 0.0, 0.0, 0.0, 0.0, 0.0, 0.0, 0.0, 0.0)","b'$VNYMR,-065.365,+006.380,+000.021,+00.2819,-00.2318,+00.6604,-00.054,-01.176,-09.394,+00.008472,-00.018793,-00.247403"
1666974630.3660278,0,1666974630,333042860,IMU1_Frame,0,0,0,,0.03019189601192201,0.0465787128292031,-0.541770322936127,0.8386917133917948,"(0.0, 0.0, 0.0, 0.0, 0.0, 0.0, 0.0, 0.0, 0.0)",0.021404,-0.015733,-0.246175,"(0.0, 0.0, 0.0, 0.0, 0.0, 0.0, 0.0, 0.0, 0.0)",0.121,-1.102,-9.72,"(0.0, 0.0, 0.0, 0.0, 0.0, 0.0, 0.0, 0.0, 0.0)",0,0,0,,0.282,-0.214,0.6458,"(0.0, 0.0, 0.0, 0.0, 0.0, 0.0, 0.0, 0.0, 0.0)","b'$VNYMR,-065.722,+006.364,+000.010,+00.2820,-00.2140,+00.6458,+00.121,-01.102,-09.720,+00.021404,-00.015733,-00.246175"
1666974630.366093,0,1666974630,359462976,IMU1_Frame,0,0,0,,0.03025753670309311,0.046411291465420716,-0.5443751998461986,0.8370102241248814,"(0.0, 0.0, 0.0, 0.0, 0.0, 0.0, 0.0, 0.0, 0.0)",0.025153,-0.01073,-0.247142,"(0.0, 0.0, 0.0, 0.0, 0.0, 0.0, 0.0, 0.0, 0.0)",0.232,-0.978,-9.402,"(0.0, 0.0, 0.0, 0.0, 0.0, 0.0, 0.0, 0.0, 0.0)",0,0,0,,0.281,-0.2219,0.6503,"(0.0, 0.0, 0.0, 0.0, 0.0, 0.0, 0.0, 0.0, 0.0)","b'$VNYMR,-066.078,+006.352,+000.007,+00.2810,-00.2219,+00.6503,+00.232,-00.978,-09.402,+00.025153,-00.010730,-00.247142"
1666974630.4099514,0,1666974630,385480880,IMU1_Frame,0,0,0,,0.03037982233749102,0.04626882159300565,-0.546967596631406,0.8353219204464831,"(0.0, 0.0, 0.0, 0.0, 0.0, 0.0, 0.0, 0.0, 0.0)",0.025954,-0.006369,-0.246831,"(0.0, 0.0, 0.0, 0.0, 0.0, 0.0, 0.0, 0.0, 0.0)",0.52,-1.032,-9.73,"(0.0, 0.0, 0.0, 0.0, 0.0, 0.0, 0.0, 0.0, 0.0)",0,0,0,,0.283,-0.215,0.6581,"(0.0, 0.0, 0.0, 0.0, 0.0, 0.0, 0.0, 0.0, 0.0)","b'$VNYMR,-066.433,+006.346,+000.008,+00.2830,-00.2150,+00.6581,+00.520,-01.032,-09.730,+00.025954,-00.006369,-00.246831"
1666974630.4100204,0,1666974630,407292842,IMU1_Frame,0,0,0,,0.0304973631695767,0.0461496486216472,-0.5495679689515969,0.8336157197859324,"(0.0, 0.0, 0.0, 0.0, 0.0, 0.0, 0.0, 0.0, 0.0)",0.022044,-0.013199,-0.248343,"(0.0, 0.0, 0.0, 0.0, 0.0, 0.0, 0.0, 0.0, 0.0)",0.509,-1.137,-9.687,"(0.0, 0.0, 0.0, 0.0, 0.0, 0.0, 0.0, 0.0, 0.0)",0,0,0,,0.2876,-0.2231,0.6595,"(0.0, 0.0, 0.0, 0.0, 0.0, 0.0, 0.0, 0.0, 0.0)","b'$VNYMR,-066.790,+006.342,+000.007,+00.2876,-00.2231,+00.6595,+00.509,-01.137,-09.687,+00.022044,-00.013199,-00.248343"
1666974630.4539826,0,1666974630,432194232,IMU1_Frame,0,0,0,,0.03056873179320895,0.04613374731356713,-0.5521639866346718,0.8318967254768279,"(0.0, 0.0, 0.0, 0.0, 0.0, 0.0, 0.0, 0.0, 0.0)",0.012761,-0.004305,-0.251965,"(0.0, 0.0, 0.0, 0.0, 0.0, 0.0, 0.0, 0.0, 0.0)",0.271,-1.415,-10.272,"(0.0, 0.0, 0.0, 0.0, 0.0, 0.0, 0.0, 0.0, 0.0)",0,0,0,,0.286,-0.2021,0.6625,"(0.0, 0.0, 0.0, 0.0, 0.0, 0.0, 0.0, 0.0, 0.0)","b'$VNYMR,-067.148,+006.345,-000.005,+00.2860,-00.2021,+00.6625,+00.271,-01.415,-10.272,+00.012761,-00.004305,-00.251965"
1666974630.4582794,0,1666974630,457718133,IMU1_Frame,0,0,0,,0.030497387303529962,0.046181925011147366,-0.5547844000659187,0.8301514371567528,"(0.0, 0.0, 0.0, 0.0, 0.0, 0.0, 0.0, 0.0, 0.0)",0.003028,0.000561,-0.256838,"(0.0, 0.0, 0.0, 0.0, 0.0, 0.0, 0.0, 0.0, 0.0)",-0.026,-1.31,-10.67,"(0.0, 0.0, 0.0, 0.0, 0.0, 0.0, 0.0, 0.0, 0.0)",0,0,0,,0.2868,-0.2071,0.646,"(0.0, 0.0, 0.0, 0.0, 0.0, 0.0, 0.0, 0.0, 0.0)","b'$VNYMR,-067.511,+006.345,-000.035,+00.2868,-00.2071,+00.6460,-00.026,-01.310,-10.670,+00.003028,+00.000561,-00.256838"
1666974630.502081,0,1666974630,483758926,IMU1_Frame,0,0,0,,0.030344288731130837,0.04627596653473134,-0.5574312381787345,0.8283768307752222,"(0.0, 0.0, 0.0, 0.0, 0.0, 0.0, 0.0, 0.0, 0.0)",-0.001965,-0.004661,-0.257905,"(0.0, 0.0, 0.0, 0.0, 0.0, 0.0, 0.0, 0.0, 0.0)",-0.029,-1.257,-10.262,"(0.0, 0.0, 0.0, 0.0, 0.0, 0.0, 0.0, 0.0, 0.0)",0,0,0,,0.2877,-0.2181,0.6628,"(0.0, 0.0, 0.0, 0.0, 0.0, 0.0, 0.0, 0.0, 0.0)","b'$VNYMR,-067.879,+006.344,-000.076,+00.2877,-00.2181,+00.6628,-00.029,-01.257,-10.262,-00.001965,-00.004661,-00.257905"
1666974630.5461972,0,1666974630,507943630,IMU1_Frame,0,0,0,,0.030209429506723492,0.04631764347571043,-0.5600898942172493,0.8265841618779335,"(0.0, 0.0, 0.0, 0.0, 0.0, 0.0, 0.0, 0.0, 0.0)",0.005845,-0.002366,-0.258741,"(0.0, 0.0, 0.0, 0.0, 0.0, 0.0, 0.0, 0.0, 0.0)",0.139,-1.294,-10.037,"(0.0, 0.0, 0.0, 0.0, 0.0, 0.0, 0.0, 0.0, 0.0)",0,0,0,,0.2897,-0.2112,0.6628,"(0.0, 0.0, 0.0, 0.0, 0.0, 0.0, 0.0, 0.0, 0.0)","b'$VNYMR,-068.249,+006.339,-000.112,+00.2897,-00.2112,+00.6628,+00.139,-01.294,-10.037,+00.005845,-00.002366,-00.258741"
1666974630.5462859,0,1666974630,533424854,IMU1_Frame,0,0,0,,0.0301408039537001,0.0462842690535547,-0.56276963248339,0.8247664148895206,"(0.0, 0.0, 0.0, 0.0, 0.0, 0.0, 0.0, 0.0, 0.0)",0.014834,0.00059,-0.263083,"(0.0, 0.0, 0.0, 0.0, 0.0, 0.0, 0.0, 0.0, 0.0)",0.151,-1.154,-9.945,"(0.0, 0.0, 0.0, 0.0, 0.0, 0.0, 0.0, 0.0, 0.0)",0,0,0,,0.2896,-0.2122,0.655,"(0.0, 0.0, 0.0, 0.0, 0.0, 0.0, 0.0, 0.0, 0.0)","b'$VNYMR,-068.622,+006.331,-000.137,+00.2896,-00.2122,+00.6550,+00.151,-01.154,-09.945,+00.014834,+00.000590,-00.263083"
1666974630.5898824,0,1666974630,566576480,IMU1_Frame,0,0,0,,0.030148907649535418,0.04611464316481746,-0.5654737161104817,0.8229240301762512,"(0.0, 0.0, 0.0, 0.0, 0.0, 0.0, 0.0, 0.0, 0.0)",0.027011,-0.002569,-0.263679,"(0.0, 0.0, 0.0, 0.0, 0.0, 0.0, 0.0, 0.0, 0.0)",0.518,-1.09,-9.746,"(0.0, 0.0, 0.0, 0.0, 0.0, 0.0, 0.0, 0.0, 0.0)",0,0,0,,0.2896,-0.2132,0.655,"(0.0, 0.0, 0.0, 0.0, 0.0, 0.0, 0.0, 0.0, 0.0)","b'$VNYMR,-068.998,+006.315,-000.146,+00.2896,-00.2132,+00.6550,+00.518,-01.090,-09.746,+00.027011,-00.002569,-00.263679"
1666974630.5899448,0,1666974630,583351135,IMU1_Frame,0,0,0,,0.030211443800740954,0.045854308449062325,-0.5681990836276646,0.8210569118062492,"(0.0, 0.0, 0.0, 0.0, 0.0, 0.0, 0.0, 0.0, 0.0)",0.033753,-0.011559,-0.266873,"(0.0, 0.0, 0.0, 0.0, 0.0, 0.0, 0.0, 0.0, 0.0)",0.49,-1.092,-9.365,"(0.0, 0.0, 0.0, 0.0, 0.0, 0.0, 0.0, 0.0, 0.0)",0,0,0,,0.2877,-0.2072,0.6438,"(0.0, 0.0, 0.0, 0.0, 0.0, 0.0, 0.0, 0.0, 0.0)","b'$VNYMR,-069.377,+006.294,-000.144,+00.2877,-00.2072,+00.6438,+00.490,-01.092,-09.365,+00.033753,-00.011559,-00.266873"
1666974630.634047,0,1666974630,608392238,IMU1_Frame,0,0,0,,0.030304285458233722,0.045529539028276125,-0.5709507655886032,0.8191605060258498,"(0.0, 0.0, 0.0, 0.0, 0.0, 0.0, 0.0, 0.0, 0.0)",0.035226,-0.022816,-0.265898,"(0.0, 0.0, 0.0, 0.0, 0.0, 0.0, 0.0, 0.0, 0.0)",0.114,-1.155,-9.742,"(0.0, 0.0, 0.0, 0.0, 0.0, 0.0, 0.0, 0.0, 0.0)",0,0,0,,0.2905,-0.2182,0.6574,"(0.0, 0.0, 0.0, 0.0, 0.0, 0.0, 0.0, 0.0, 0.0)","b'$VNYMR,-069.760,+006.269,-000.135,+00.2905,-00.2182,+00.6574,+00.114,-01.155,-09.742,+00.035226,-00.022816,-00.265898"
1666974630.634628,0,1666974630,633568763,IMU1_Frame,0,0,0,,0.030429436271311883,0.04523398248220295,-0.573730707616626,0.8172276374271341,"(0.0, 0.0, 0.0, 0.0, 0.0, 0.0, 0.0, 0.0, 0.0)",0.033061,-0.011306,-0.270875,"(0.0, 0.0, 0.0, 0.0, 0.0, 0.0, 0.0, 0.0, 0.0)",-0.129,-1.251,-10.295,"(0.0, 0.0, 0.0, 0.0, 0.0, 0.0, 0.0, 0.0, 0.0)",0,0,0,,0.2907,-0.1973,0.656,"(0.0, 0.0, 0.0, 0.0, 0.0, 0.0, 0.0, 0.0, 0.0)","b'$VNYMR,-070.148,+006.249,-000.125,+00.2907,-00.1973,+00.6560,-00.129,-01.251,-10.295,+00.033061,-00.011306,-00.270875"
1666974630.6780522,0,1666974630,658704757,IMU1_Frame,0,0,0,,0.030506907827685736,0.04506673026926579,-0.5765177642989954,0.8152702532567458,"(0.0, 0.0, 0.0, 0.0, 0.0, 0.0, 0.0, 0.0, 0.0)",0.022456,0.002464,-0.273454,"(0.0, 0.0, 0.0, 0.0, 0.0, 0.0, 0.0, 0.0, 0.0)",0.142,-1.258,-9.772,"(0.0, 0.0, 0.0, 0.0, 0.0, 0.0, 0.0, 0.0, 0.0)",0,0,0,,0.2915,-0.2122,0.6596,"(0.0, 0.0, 0.0, 0.0, 0.0, 0.0, 0.0, 0.0, 0.0)","b'$VNYMR,-070.539,+006.238,-000.128,+00.2915,-00.2122,+00.6596,+00.142,-01.258,-09.772,+00.022456,+00.002464,-00.273454"
1666974630.721968,0,1666974630,683491945,IMU1_Frame,0,0,0,,0.030443796836296833,0.045031186061530296,-0.5793099491249969,0.8132929056378616,"(0.0, 0.0, 0.0, 0.0, 0.0, 0.0, 0.0, 0.0, 0.0)",0.008,-0.006411,-0.274916,"(0.0, 0.0, 0.0, 0.0, 0.0, 0.0, 0.0, 0.0, 0.0)",0.386,-1.592,-9.427,"(0.0, 0.0, 0.0, 0.0, 0.0, 0.0, 0.0, 0.0, 0.0)",0,0,0,,0.2907,-0.1973,0.656,"(0.0, 0.0, 0.0, 0.0, 0.0, 0.0, 0.0, 0.0, 0.0)","b'$VNYMR,-070.933,+006.230,-000.153,+00.2907,-00.1973,+00.6560,+00.386,-01.592,-09.427,+00.008000,-00.006411,-00.274916"
1666974630.7219877,0,1666974630,709545135,IMU1_Frame,0,0,0,,0.030369594097140712,0.045069029350694435,-0.5821054236627229,0.8112951041946469,"(0.0, 0.0, 0.0, 0.0, 0.0, 0.0, 0.0, 0.0, 0.0)",0.008182,0.003365,-0.275847,"(0.0, 0.0, 0.0, 0.0, 0.0, 0.0, 0.0, 0.0, 0.0)",0.175,-1.242,-9.871,"(0.0, 0.0, 0.0, 0.0, 0.0, 0.0, 0.0, 0.0, 0.0)",0,0,0,,0.2889,-0.1784,0.6336,"(0.0, 0.0, 0.0, 0.0, 0.0, 0.0, 0.0, 0.0, 0.0)","b'$VNYMR,-071.329,+006.228,-000.184,+00.2889,-00.1784,+00.6336,+00.175,-01.242,-09.871,+00.008182,+00.003365,-00.275847"
1666974630.7659507,0,1666974630,733997821,IMU1_Frame,0,0,0,,0.030388232483258833,0.04507348698649854,-0.584883305241386,0.8092938003885444,"(0.0, 0.0, 0.0, 0.0, 0.0, 0.0, 0.0, 0.0, 0.0)",0.021172,0.006851,-0.275245,"(0.0, 0.0, 0.0, 0.0, 0.0, 0.0, 0.0, 0.0, 0.0)",0.678,-1.111,-9.025,"(0.0, 0.0, 0.0, 0.0, 0.0, 0.0, 0.0, 0.0, 0.0)",0,0,0,,0.2916,-0.2082,0.6595,"(0.0, 0.0, 0.0, 0.0, 0.0, 0.0, 0.0, 0.0, 0.0)","b'$VNYMR,-071.723,+006.229,-000.204,+00.2916,-00.2082,+00.6595,+00.678,-01.111,-09.025,+00.021172,+00.006851,-00.275245"
1666974630.765984,0,1666974630,757690668,IMU1_Frame,0,0,0,,0.030474550766849535,0.04492152514173992,-0.5876427484512132,0.8072975650447627,"(0.0, 0.0, 0.0, 0.0, 0.0, 0.0, 0.0, 0.0, 0.0)",0.029686,-0.010915,-0.271461,"(0.0, 0.0, 0.0, 0.0, 0.0, 0.0, 0.0, 0.0, 0.0)",0.773,-0.919,-8.909,"(0.0, 0.0, 0.0, 0.0, 0.0, 0.0, 0.0, 0.0, 0.0)",0,0,0,,0.2925,-0.2063,0.6584,"(0.0, 0.0, 0.0, 0.0, 0.0, 0.0, 0.0, 0.0, 0.0)","b'$VNYMR,-072.114,+006.220,-000.207,+00.2925,-00.2063,+00.6584,+00.773,-00.919,-08.909,+00.029686,-00.010915,-00.271461"
1666974630.8099775,0,1666974630,782698154,IMU1_Frame,0,0,0,,0.03069386680872061,0.04458501736063707,-0.5903934016421689,0.8052985123944219,"(0.0, 0.0, 0.0, 0.0, 0.0, 0.0, 0.0, 0.0, 0.0)",0.046018,-0.018226,-0.27008,"(0.0, 0.0, 0.0, 0.0, 0.0, 0.0, 0.0, 0.0, 0.0)",0.559,-1.031,-9.596,"(0.0, 0.0, 0.0, 0.0, 0.0, 0.0, 0.0, 0.0, 0.0)",0,0,0,,0.2889,-0.1883,0.6537,"(0.0, 0.0, 0.0, 0.0, 0.0, 0.0, 0.0, 0.0, 0.0)","b'$VNYMR,-072.503,+006.203,-000.185,+00.2889,-00.1883,+00.6537,+00.559,-01.031,-09.596,+00.046018,-00.018226,-00.270080"
1666974630.8099966,0,1666974630,808837175,IMU1_Frame,0,0,0,,0.030963985071474045,0.044186932858400405,-0.5931412252080337,0.8032883875369875,"(0.0, 0.0, 0.0, 0.0, 0.0, 0.0, 0.0, 0.0, 0.0)",0.05202,-0.012768,-0.273283,"(0.0, 0.0, 0.0, 0.0, 0.0, 0.0, 0.0, 0.0, 0.0)",0.683,-1.05,-9.432,"(0.0, 0.0, 0.0, 0.0, 0.0, 0.0, 0.0, 0.0, 0.0)",0,0,0,,0.2917,-0.1983,0.6594,"(0.0, 0.0, 0.0, 0.0, 0.0, 0.0, 0.0, 0.0, 0.0)","b'$VNYMR,-072.892,+006.184,-000.154,+00.2917,-00.1983,+00.6594,+00.683,-01.050,-09.432,+00.052020,-00.012768,-00.273283"
1666974630.8539307,0,1666974630,833240509,IMU1_Frame,0,0,0,,0.031137234481147795,0.04379264558725244,-0.5958733673489542,0.8012787323432174,"(0.0, 0.0, 0.0, 0.0, 0.0, 0.0, 0.0, 0.0, 0.0)",0.037468,-0.025558,-0.271563,"(0.0, 0.0, 0.0, 0.0, 0.0, 0.0, 0.0, 0.0, 0.0)",0.701,-1.23,-9.418,"(0.0, 0.0, 0.0, 0.0, 0.0, 0.0, 0.0, 0.0, 0.0)",0,0,0,,0.2908,-0.1864,0.6504,"(0.0, 0.0, 0.0, 0.0, 0.0, 0.0, 0.0, 0.0, 0.0)","b'$VNYMR,-073.280,+006.159,-000.132,+00.2908,-00.1864,+00.6504,+00.701,-01.230,-09.418,+00.037468,-00.025558,-00.271563"
1666974630.8598828,0,1666974630,859279870,IMU1_Frame,0,0,0,,0.03115238647523277,0.0434926226262862,-0.5986121199245024,0.7992505555040162,"(0.0, 0.0, 0.0, 0.0, 0.0, 0.0, 0.0, 0.0, 0.0)",0.023153,-0.015038,-0.273385,"(0.0, 0.0, 0.0, 0.0, 0.0, 0.0, 0.0, 0.0, 0.0)",0.46,-1.458,-10.321,"(0.0, 0.0, 0.0, 0.0, 0.0, 0.0, 0.0, 0.0, 0.0)",0,0,0,,0.2927,-0.1884,0.6472,"(0.0, 0.0, 0.0, 0.0, 0.0, 0.0, 0.0, 0.0, 0.0)","b'$VNYMR,-073.671,+006.132,-000.131,+00.2927,-00.1884,+00.6472,+00.460,-01.458,-10.321,+00.023153,-00.015038,-00.273385"
1666974630.901998,0,1666974630,884107112,IMU1_Frame,0,0,0,,0.03112966370593979,0.04328586252776186,-0.6013732142708076,0.797187264888483,"(0.0, 0.0, 0.0, 0.0, 0.0, 0.0, 0.0, 0.0, 0.0)",0.023208,-0.010593,-0.278613,"(0.0, 0.0, 0.0, 0.0, 0.0, 0.0, 0.0, 0.0, 0.0)",0.496,-1.277,-9.27,"(0.0, 0.0, 0.0, 0.0, 0.0, 0.0, 0.0, 0.0, 0.0)",0,0,0,,0.2974,-0.1915,0.6652,"(0.0, 0.0, 0.0, 0.0, 0.0, 0.0, 0.0, 0.0, 0.0)","b'$VNYMR,-074.067,+006.111,-000.140,+00.2974,-00.1915,+00.6652,+00.496,-01.277,-09.270,+00.023208,-00.010593,-00.278613"
1666974630.946087,0,1666974630,909662723,IMU1_Frame,0,0,0,,0.031115778001931174,0.04305035887910469,-0.604121963240696,0.7951195686750024,"(0.0, 0.0, 0.0, 0.0, 0.0, 0.0, 0.0, 0.0, 0.0)",0.027205,-0.017605,-0.276359,"(0.0, 0.0, 0.0, 0.0, 0.0, 0.0, 0.0, 0.0, 0.0)",0.565,-0.878,-9.36,"(0.0, 0.0, 0.0, 0.0, 0.0, 0.0, 0.0, 0.0, 0.0)",0,0,0,,0.2956,-0.1885,0.6661,"(0.0, 0.0, 0.0, 0.0, 0.0, 0.0, 0.0, 0.0, 0.0)","b'$VNYMR,-074.462,+006.088,-000.146,+00.2956,-00.1885,+00.6661,+00.565,-00.878,-09.360,+00.027205,-00.017605,-00.276359"
1666974630.9461212,0,1666974630,934219598,IMU1_Frame,0,0,0,,0.031214667612877535,0.0427501392088411,-0.6068616943830308,0.7930428450052361,"(0.0, 0.0, 0.0, 0.0, 0.0, 0.0, 0.0, 0.0, 0.0)",0.037378,-0.005185,-0.275244,"(0.0, 0.0, 0.0, 0.0, 0.0, 0.0, 0.0, 0.0, 0.0)",0.256,-1.017,-10.493,"(0.0, 0.0, 0.0, 0.0, 0.0, 0.0, 0.0, 0.0, 0.0)",0,0,0,,0.2956,-0.1765,0.6527,"(0.0, 0.0, 0.0, 0.0, 0.0, 0.0, 0.0, 0.0, 0.0)","b'$VNYMR,-074.856,+006.067,-000.137,+00.2956,-00.1765,+00.6527,+00.256,-01.017,-10.493,+00.037378,-00.005185,-00.275244"
1666974630.9899406,0,1666974630,959359884,IMU1_Frame,0,0,0,,0.031353479796148886,0.042461669629129034,-0.6095872939153281,0.7909597316007728,"(0.0, 0.0, 0.0, 0.0, 0.0, 0.0, 0.0, 0.0, 0.0)",0.036073,-0.009594,-0.275116,"(0.0, 0.0, 0.0, 0.0, 0.0, 0.0, 0.0, 0.0, 0.0)",0.429,-1.04,-9.654,"(0.0, 0.0, 0.0, 0.0, 0.0, 0.0, 0.0, 0.0, 0.0)",0,0,0,,0.2975,-0.1836,0.654,"(0.0, 0.0, 0.0, 0.0, 0.0, 0.0, 0.0, 0.0, 0.0)","b'$VNYMR,-075.249,+006.050,-000.125,+00.2975,-00.1836,+00.6540,+00.429,-01.040,-09.654,+00.036073,-00.009594,-00.275116"
1666974630.9899604,0,1666974630,983968973,IMU1_Frame,0,0,0,,0.031470383634748605,0.04223261962567511,-0.6122954496269569,0.78887280543796,"(0.0, 0.0, 0.0, 0.0, 0.0, 0.0, 0.0, 0.0, 0.0)",0.029684,-0.00933,-0.274643,"(0.0, 0.0, 0.0, 0.0, 0.0, 0.0, 0.0, 0.0, 0.0)",0.431,-1.258,-10.22,"(0.0, 0.0, 0.0, 0.0, 0.0, 0.0, 0.0, 0.0, 0.0)",0,0,0,,0.2985,-0.1816,0.6585,"(0.0, 0.0, 0.0, 0.0, 0.0, 0.0, 0.0, 0.0, 0.0)","b'$VNYMR,-075.641,+006.037,-000.119,+00.2985,-00.1816,+00.6585,+00.431,-01.258,-10.220,+00.029684,-00.009330,-00.274643"
1666974631.0339913,0,1666974631,8090734,IMU1_Frame,0,0,0,,0.0315582260743477,0.042036140481203785,-0.6150149164924793,0.7867615227959698,"(0.0, 0.0, 0.0, 0.0, 0.0, 0.0, 0.0, 0.0, 0.0)",0.028077,-0.004831,-0.276052,"(0.0, 0.0, 0.0, 0.0, 0.0, 0.0, 0.0, 0.0, 0.0)",0.134,-1.177,-10.342,"(0.0, 0.0, 0.0, 0.0, 0.0, 0.0, 0.0, 0.0, 0.0)",0,0,0,,0.2956,-0.1805,0.6528,"(0.0, 0.0, 0.0, 0.0, 0.0, 0.0, 0.0, 0.0, 0.0)","b'$VNYMR,-076.036,+006.025,-000.118,+00.2956,-00.1805,+00.6528,+00.134,-01.177,-10.342,+00.028077,-00.004831,-00.276052"
1666974631.0356827,0,1666974631,35232782,IMU1_Frame,0,0,0,,0.031621994485257515,0.04186879536065175,-0.6177048017406497,0.7846577797654,"(0.0, 0.0, 0.0, 0.0, 0.0, 0.0, 0.0, 0.0, 0.0)",0.028428,-0.002671,-0.276563,"(0.0, 0.0, 0.0, 0.0, 0.0, 0.0, 0.0, 0.0, 0.0)",0.803,-1.19,-9.265,"(0.0, 0.0, 0.0, 0.0, 0.0, 0.0, 0.0, 0.0, 0.0)",0,0,0,,0.2975,-0.1796,0.6606,"(0.0, 0.0, 0.0, 0.0, 0.0, 0.0, 0.0, 0.0, 0.0)","b'$VNYMR,-076.428,+006.014,-000.121,+00.2975,-00.1796,+00.6606,+00.803,-01.190,-09.265,+00.028428,-00.002671,-00.276563"
1666974631.0780177,0,1666974631,58762788,IMU1_Frame,0,0,0,,0.031671935806097604,0.041656260166500064,-0.6203965005725843,0.782540622938213,"(0.0, 0.0, 0.0, 0.0, 0.0, 0.0, 0.0, 0.0, 0.0)",0.0281,-0.014625,-0.272883,"(0.0, 0.0, 0.0, 0.0, 0.0, 0.0, 0.0, 0.0, 0.0)",1.296,-0.707,-9.118,"(0.0, 0.0, 0.0, 0.0, 0.0, 0.0, 0.0, 0.0, 0.0)",0,0,0,,0.2957,-0.1755,0.6605,"(0.0, 0.0, 0.0, 0.0, 0.0, 0.0, 0.0, 0.0, 0.0)","b'$VNYMR,-076.821,+005.998,-000.122,+00.2957,-00.1755,+00.6605,+01.296,-00.707,-09.118,+00.028100,-00.014625,-00.272883"
1666974631.1219275,0,1666974631,83368539,IMU1_Frame,0,0,0,,0.0317977802828799,0.041304325075088896,-0.6230754850493336,0.780422830156647,"(0.0, 0.0, 0.0, 0.0, 0.0, 0.0, 0.0, 0.0, 0.0)",0.041263,-0.016525,-0.271071,"(0.0, 0.0, 0.0, 0.0, 0.0, 0.0, 0.0, 0.0, 0.0)",0.577,-0.775,-9.432,"(0.0, 0.0, 0.0, 0.0, 0.0, 0.0, 0.0, 0.0, 0.0)",0,0,0,,0.2938,-0.1735,0.6526,"(0.0, 0.0, 0.0, 0.0, 0.0, 0.0, 0.0, 0.0, 0.0)","b'$VNYMR,-077.212,+005.975,-000.106,+00.2938,-00.1735,+00.6526,+00.577,-00.775,-09.432,+00.041263,-00.016525,-00.271071"
1666974631.1219475,0,1666974631,109399795,IMU1_Frame,0,0,0,,0.03197968758058777,0.04080463613359757,-0.6257282956157352,0.7783163761081221,"(0.0, 0.0, 0.0, 0.0, 0.0, 0.0, 0.0, 0.0, 0.0)",0.053505,-0.01809,-0.268578,"(0.0, 0.0, 0.0, 0.0, 0.0, 0.0, 0.0, 0.0, 0.0)",0.497,-1.046,-9.38,"(0.0, 0.0, 0.0, 0.0, 0.0, 0.0, 0.0, 0.0, 0.0)",0,0,0,,0.2948,-0.1616,0.6437,"(0.0, 0.0, 0.0, 0.0, 0.0, 0.0, 0.0, 0.0, 0.0)","b'$VNYMR,-077.599,+005.943,-000.074,+00.2948,-00.1616,+00.6437,+00.497,-01.046,-09.380,+00.053505,-00.018090,-00.268578"
1666974631.1661115,0,1666974631,134591817,IMU1_Frame,0,0,0,,0.03209952372940409,0.04027349948488604,-0.6283679357769658,0.7762096386305579,"(0.0, 0.0, 0.0, 0.0, 0.0, 0.0, 0.0, 0.0, 0.0)",0.03865,-0.033548,-0.269146,"(0.0, 0.0, 0.0, 0.0, 0.0, 0.0, 0.0, 0.0, 0.0)",0.669,-1.461,-10.047,"(0.0, 0.0, 0.0, 0.0, 0.0, 0.0, 0.0, 0.0, 0.0)",0,0,0,,0.2948,-0.1745,0.6582,"(0.0, 0.0, 0.0, 0.0, 0.0, 0.0, 0.0, 0.0, 0.0)","b'$VNYMR,-077.985,+005.904,-000.045,+00.2948,-00.1745,+00.6582,+00.669,-01.461,-10.047,+00.038650,-00.033548,-00.269146"
1666974631.1661315,0,1666974631,158010482,IMU1_Frame,0,0,0,,0.03210712130546988,0.03990959818798238,-0.6310108684278751,0.7740811589619324,"(0.0, 0.0, 0.0, 0.0, 0.0, 0.0, 0.0, 0.0, 0.0)",0.021946,-0.017211,-0.274617,"(0.0, 0.0, 0.0, 0.0, 0.0, 0.0, 0.0, 0.0, 0.0)",-0.03,-1.891,-11.017,"(0.0, 0.0, 0.0, 0.0, 0.0, 0.0, 0.0, 0.0, 0.0)",0,0,0,,0.2903,-0.1436,0.6411,"(0.0, 0.0, 0.0, 0.0, 0.0, 0.0, 0.0, 0.0, 0.0)","b'$VNYMR,-078.374,+005.872,-000.038,+00.2903,-00.1436,+00.6411,-00.030,-01.891,-11.017,+00.021946,-00.017211,-00.274617"
1666974631.2099388,0,1666974631,185494422,IMU1_Frame,0,0,0,,0.03188828545844988,0.03988813094209021,-0.6336538641961085,0.7719293067696076,"(0.0, 0.0, 0.0, 0.0, 0.0, 0.0, 0.0, 0.0, 0.0)",-0.008622,-0.001444,-0.275931,"(0.0, 0.0, 0.0, 0.0, 0.0, 0.0, 0.0, 0.0, 0.0)",0.066,-2.077,-11.122,"(0.0, 0.0, 0.0, 0.0, 0.0, 0.0, 0.0, 0.0, 0.0)",0,0,0,,0.292,-0.1675,0.6624,"(0.0, 0.0, 0.0, 0.0, 0.0, 0.0, 0.0, 0.0, 0.0)","b'$VNYMR,-078.767,+005.854,-000.076,+00.2920,-00.1675,+00.6624,+00.066,-02.077,-11.122,-00.008622,-00.001444,-00.275931"
1666974631.2099588,0,1666974631,207936763,IMU1_Frame,0,0,0,,0.03146704119876242,0.04019450306809629,-0.6363043529688743,0.7697473596149365,"(0.0, 0.0, 0.0, 0.0, 0.0, 0.0, 0.0, 0.0, 0.0)",-0.036012,0.004456,-0.280484,"(0.0, 0.0, 0.0, 0.0, 0.0, 0.0, 0.0, 0.0, 0.0)",0.497,-1.928,-10.826,"(0.0, 0.0, 0.0, 0.0, 0.0, 0.0, 0.0, 0.0, 0.0)",0,0,0,,0.2911,-0.1625,0.6624,"(0.0, 0.0, 0.0, 0.0, 0.0, 0.0, 0.0, 0.0, 0.0)","b'$VNYMR,-079.165,+005.850,-000.156,+00.2911,-00.1625,+00.6624,+00.497,-01.928,-10.826,-00.036012,+00.004456,-00.280484"
1666974631.2540233,0,1666974631,232983827,IMU1_Frame,0,0,0,,0.030972979418767758,0.040737181930168134,-0.6389675431103983,0.7675295664700964,"(0.0, 0.0, 0.0, 0.0, 0.0, 0.0, 0.0, 0.0, 0.0)",-0.047267,0.016983,-0.284849,"(0.0, 0.0, 0.0, 0.0, 0.0, 0.0, 0.0, 0.0, 0.0)",0.13,-1.821,-11.27,"(0.0, 0.0, 0.0, 0.0, 0.0, 0.0, 0.0, 0.0, 0.0)",0,0,0,,0.2903,-0.1386,0.6366,"(0.0, 0.0, 0.0, 0.0, 0.0, 0.0, 0.0, 0.0, 0.0)","b'$VNYMR,-079.568,+005.861,-000.260,+00.2903,-00.1386,+00.6366,+00.130,-01.821,-11.270,-00.047267,+00.016983,-00.284849"
1666974631.2653143,0,1666974631,264699220,IMU1_Frame,0,0,0,,0.030587535592962328,0.04137834573761148,-0.6416448312078716,0.7652739024392442,"(0.0, 0.0, 0.0, 0.0, 0.0, 0.0, 0.0, 0.0, 0.0)",-0.037538,0.026041,-0.283643,"(0.0, 0.0, 0.0, 0.0, 0.0, 0.0, 0.0, 0.0, 0.0)",0.247,-1.204,-9.982,"(0.0, 0.0, 0.0, 0.0, 0.0, 0.0, 0.0, 0.0, 0.0)",0,0,0,,0.2949,-0.1556,0.6525,"(0.0, 0.0, 0.0, 0.0, 0.0, 0.0, 0.0, 0.0, 0.0)","b'$VNYMR,-079.975,+005.888,-000.362,+00.2949,-00.1556,+00.6525,+00.247,-01.204,-09.982,-00.037538,+00.026041,-00.283643"
1666974631.3058677,0,1666974631,284170866,IMU1_Frame,0,0,0,,0.030345764245795326,0.04190541923029527,-0.6443010057070052,0.7630198454014242,"(0.0, 0.0, 0.0, 0.0, 0.0, 0.0, 0.0, 0.0, 0.0)",-0.021101,0.016778,-0.2791,"(0.0, 0.0, 0.0, 0.0, 0.0, 0.0, 0.0, 0.0, 0.0)",0.63,-1.049,-9.695,"(0.0, 0.0, 0.0, 0.0, 0.0, 0.0, 0.0, 0.0, 0.0)",0,0,0,,0.2931,-0.1466,0.6501,"(0.0, 0.0, 0.0, 0.0, 0.0, 0.0, 0.0, 0.0, 0.0)","b'$VNYMR,-080.379,+005.915,-000.443,+00.2931,-00.1466,+00.6501,+00.630,-01.049,-09.695,-00.021101,+00.016778,-00.279100"
1666974631.350277,0,1666974631,307776212,IMU1_Frame,0,0,0,,0.030355452414871826,0.04221296387908382,-0.6469762848986087,0.7607353672388485,"(0.0, 0.0, 0.0, 0.0, 0.0, 0.0, 0.0, 0.0, 0.0)",0.009493,0.017025,-0.284036,"(0.0, 0.0, 0.0, 0.0, 0.0, 0.0, 0.0, 0.0, 0.0)",0.565,-0.821,-9.49,"(0.0, 0.0, 0.0, 0.0, 0.0, 0.0, 0.0, 0.0, 0.0)",0,0,0,,0.2904,-0.1376,0.6488,"(0.0, 0.0, 0.0, 0.0, 0.0, 0.0, 0.0, 0.0, 0.0)","b'$VNYMR,-080.785,+005.941,-000.486,+00.2904,-00.1376,+00.6488,+00.565,-00.821,-09.490,+00.009493,+00.017025,-00.284036"
1666974631.350331,0,1666974631,335430860,IMU1_Frame,0,0,0,,0.030561381131210097,0.04224015378879191,-0.6496406557953999,0.7584515737533774,"(0.0, 0.0, 0.0, 0.0, 0.0, 0.0, 0.0, 0.0, 0.0)",0.036539,0.014491,-0.281278,"(0.0, 0.0, 0.0, 0.0, 0.0, 0.0, 0.0, 0.0, 0.0)",0.607,-0.548,-8.673,"(0.0, 0.0, 0.0, 0.0, 0.0, 0.0, 0.0, 0.0, 0.0)",0,0,0,,0.2932,-0.1426,0.66,"(0.0, 0.0, 0.0, 0.0, 0.0, 0.0, 0.0, 0.0, 0.0)","b'$VNYMR,-081.188,+005.957,-000.491,+00.2932,-00.1426,+00.6600,+00.607,-00.548,-08.673,+00.036539,+00.014491,-00.281278"
1666974631.3949633,0,1666974631,358367681,IMU1_Frame,0,0,0,,0.030813855951591893,0.04204240975791901,-0.6522834656736434,0.7561806811020253,"(0.0, 0.0, 0.0, 0.0, 0.0, 0.0, 0.0, 0.0, 0.0)",0.036871,-0.004922,-0.277893,"(0.0, 0.0, 0.0, 0.0, 0.0, 0.0, 0.0, 0.0, 0.0)",0.845,-0.866,-8.638,"(0.0, 0.0, 0.0, 0.0, 0.0, 0.0, 0.0, 0.0, 0.0)",0,0,0,,0.2923,-0.1327,0.6455,"(0.0, 0.0, 0.0, 0.0, 0.0, 0.0, 0.0, 0.0, 0.0)","b'$VNYMR,-081.587,+005.957,-000.475,+00.2923,-00.1327,+00.6455,+00.845,-00.866,-08.638,+00.036871,-00.004922,-00.277893"
1666974631.3994193,0,1666974631,390636444,IMU1_Frame,0,0,0,,0.031024611958000724,0.041728805430436396,-0.6549375091798139,0.7538919281432488,"(0.0, 0.0, 0.0, 0.0, 0.0, 0.0, 0.0, 0.0, 0.0)",0.039905,-0.01357,-0.279689,"(0.0, 0.0, 0.0, 0.0, 0.0, 0.0, 0.0, 0.0, 0.0)",0.56,-0.69,-9.261,"(0.0, 0.0, 0.0, 0.0, 0.0, 0.0, 0.0, 0.0, 0.0)",0,0,0,,0.2895,-0.1296,0.6476,"(0.0, 0.0, 0.0, 0.0, 0.0, 0.0, 0.0, 0.0, 0.0)","b'$VNYMR,-081.988,+005.944,-000.454,+00.2895,-00.1296,+00.6476,+00.560,-00.690,-09.261,+00.039905,-00.013570,-00.279689"
1666974631.4421172,0,1666974631,413898468,IMU1_Frame,0,0,0,,0.031154826535376615,0.04139047924157325,-0.6575842299960932,0.7515977551005248,"(0.0, 0.0, 0.0, 0.0, 0.0, 0.0, 0.0, 0.0, 0.0)",0.04088,-0.005547,-0.279248,"(0.0, 0.0, 0.0, 0.0, 0.0, 0.0, 0.0, 0.0, 0.0)",0.526,-0.869,-8.676,"(0.0, 0.0, 0.0, 0.0, 0.0, 0.0, 0.0, 0.0, 0.0)",0,0,0,,0.2895,-0.1356,0.6565,"(0.0, 0.0, 0.0, 0.0, 0.0, 0.0, 0.0, 0.0, 0.0)","b'$VNYMR,-082.389,+005.923,-000.438,+00.2895,-00.1356,+00.6565,+00.526,-00.869,-08.676,+00.040880,-00.005547,-00.279248"
1666974631.4421558,0,1666974631,432971477,IMU1_Frame,0,0,0,,0.031086623588582944,0.04102732274930059,-0.6602163896387947,0.7493094817725195,"(0.0, 0.0, 0.0, 0.0, 0.0, 0.0, 0.0, 0.0, 0.0)",0.026259,-0.032735,-0.278167,"(0.0, 0.0, 0.0, 0.0, 0.0, 0.0, 0.0, 0.0, 0.0)",0.63,-0.755,-8.824,"(0.0, 0.0, 0.0, 0.0, 0.0, 0.0, 0.0, 0.0, 0.0)",0,0,0,,0.2923,-0.1366,0.6566,"(0.0, 0.0, 0.0, 0.0, 0.0, 0.0, 0.0, 0.0, 0.0)","b'$VNYMR,-082.789,+005.885,-000.437,+00.2923,-00.1366,+00.6566,+00.630,-00.755,-08.824,+00.026259,-00.032735,-00.278167"
1666974631.4859571,0,1666974631,457893371,IMU1_Frame,0,0,0,,0.031031143680988485,0.04061694396331946,-0.6628367237024536,0.7470172753667265,"(0.0, 0.0, 0.0, 0.0, 0.0, 0.0, 0.0, 0.0, 0.0)",0.036018,-0.020669,-0.280228,"(0.0, 0.0, 0.0, 0.0, 0.0, 0.0, 0.0, 0.0, 0.0)",0.325,-0.863,-9.599,"(0.0, 0.0, 0.0, 0.0, 0.0, 0.0, 0.0, 0.0, 0.0)",0,0,0,,0.2905,-0.1227,0.6453,"(0.0, 0.0, 0.0, 0.0, 0.0, 0.0, 0.0, 0.0, 0.0)","b'$VNYMR,-083.188,+005.844,-000.431,+00.2905,-00.1227,+00.6453,+00.325,-00.863,-09.599,+00.036018,-00.020669,-00.280228"
1666974631.485976,0,1666974631,483941793,IMU1_Frame,0,0,0,,0.030996114705436364,0.04011674221784812,-0.6654410494206009,0.7447268610792842,"(0.0, 0.0, 0.0, 0.0, 0.0, 0.0, 0.0, 0.0, 0.0)",0.03964,-0.033129,-0.274334,"(0.0, 0.0, 0.0, 0.0, 0.0, 0.0, 0.0, 0.0, 0.0)",0.671,-0.939,-8.89,"(0.0, 0.0, 0.0, 0.0, 0.0, 0.0, 0.0, 0.0, 0.0)",0,0,0,,0.2895,-0.1247,0.6309,"(0.0, 0.0, 0.0, 0.0, 0.0, 0.0, 0.0, 0.0, 0.0)","b'$VNYMR,-083.585,+005.797,-000.416,+00.2895,-00.1247,+00.6309,+00.671,-00.939,-08.890,+00.039640,-00.033129,-00.274334"
1666974631.5299804,0,1666974631,507151126,IMU1_Frame,0,0,0,,0.030995095436674072,0.03957187250454172,-0.6679946374502113,0.7424665213348791,"(0.0, 0.0, 0.0, 0.0, 0.0, 0.0, 0.0, 0.0, 0.0)",0.039991,-0.037049,-0.26844,"(0.0, 0.0, 0.0, 0.0, 0.0, 0.0, 0.0, 0.0, 0.0)",0.493,-1.111,-9.649,"(0.0, 0.0, 0.0, 0.0, 0.0, 0.0, 0.0, 0.0, 0.0)",0,0,0,,0.2905,-0.1306,0.6543,"(0.0, 0.0, 0.0, 0.0, 0.0, 0.0, 0.0, 0.0, 0.0)","b'$VNYMR,-083.975,+005.749,-000.394,+00.2905,-00.1306,+00.6543,+00.493,-01.111,-09.649,+00.039991,-00.037049,-00.268440"
1666974631.5351415,0,1666974631,534626722,IMU1_Frame,0,0,0,,0.031078129983158526,0.03900708888336517,-0.6705417892217667,0.740193424559329,"(0.0, 0.0, 0.0, 0.0, 0.0, 0.0, 0.0, 0.0, 0.0)",0.047411,-0.027741,-0.269738,"(0.0, 0.0, 0.0, 0.0, 0.0, 0.0, 0.0, 0.0, 0.0)",0.308,-1.301,-10.046,"(0.0, 0.0, 0.0, 0.0, 0.0, 0.0, 0.0, 0.0, 0.0)",0,0,0,,0.2896,-0.1226,0.6486,"(0.0, 0.0, 0.0, 0.0, 0.0, 0.0, 0.0, 0.0, 0.0)","b'$VNYMR,-084.365,+005.706,-000.363,+00.2896,-00.1226,+00.6486,+00.308,-01.301,-10.046,+00.047411,-00.027741,-00.269738"
1666974631.5778954,0,1666974631,558671474,IMU1_Frame,0,0,0,,0.031200729372921086,0.03843827888349712,-0.6730748866735476,0.7379154491758952,"(0.0, 0.0, 0.0, 0.0, 0.0, 0.0, 0.0, 0.0, 0.0)",0.050845,-0.02131,-0.270539,"(0.0, 0.0, 0.0, 0.0, 0.0, 0.0, 0.0, 0.0, 0.0)",0.393,-1.329,-9.975,"(0.0, 0.0, 0.0, 0.0, 0.0, 0.0, 0.0, 0.0, 0.0)",0,0,0,,0.2905,-0.1296,0.6509,"(0.0, 0.0, 0.0, 0.0, 0.0, 0.0, 0.0, 0.0, 0.0)","b'$VNYMR,-084.754,+005.666,-000.328,+00.2905,-00.1296,+00.6509,+00.393,-01.329,-09.975,+00.050845,-00.021310,-00.270539"
1666974631.6220489,0,1666974631,584385395,IMU1_Frame,0,0,0,,0.03132558451580708,0.03786372655346144,-0.6755874341402741,0.7356403093890305,"(0.0, 0.0, 0.0, 0.0, 0.0, 0.0, 0.0, 0.0, 0.0)",0.049849,-0.031382,-0.270818,"(0.0, 0.0, 0.0, 0.0, 0.0, 0.0, 0.0, 0.0, 0.0)",0.555,-1.41,-9.531,"(0.0, 0.0, 0.0, 0.0, 0.0, 0.0, 0.0, 0.0, 0.0)",0,0,0,,0.2896,-0.1276,0.6553,"(0.0, 0.0, 0.0, 0.0, 0.0, 0.0, 0.0, 0.0, 0.0)","b'$VNYMR,-085.141,+005.626,-000.292,+00.2896,-00.1276,+00.6553,+00.555,-01.410,-09.531,+00.049849,-00.031382,-00.270818"
1666974631.6220663,0,1666974631,607624769,IMU1_Frame,0,0,0,,0.031434441414109934,0.037300319229824165,-0.6780977293488432,0.7333512334006667,"(0.0, 0.0, 0.0, 0.0, 0.0, 0.0, 0.0, 0.0, 0.0)",0.044207,-0.027358,-0.270782,"(0.0, 0.0, 0.0, 0.0, 0.0, 0.0, 0.0, 0.0, 0.0)",0.12,-1.564,-10.347,"(0.0, 0.0, 0.0, 0.0, 0.0, 0.0, 0.0, 0.0, 0.0)",0,0,0,,0.2858,-0.1136,0.6362,"(0.0, 0.0, 0.0, 0.0, 0.0, 0.0, 0.0, 0.0, 0.0)","b'$VNYMR,-085.529,+005.586,-000.258,+00.2858,-00.1136,+00.6362,+00.120,-01.564,-10.347,+00.044207,-00.027358,-00.270782"
1666974631.6666255,0,1666974631,633556842,IMU1_Frame,0,0,0,,0.031488452269624885,0.036820242897886435,-0.6806146806229352,0.7310378947818944,"(0.0, 0.0, 0.0, 0.0, 0.0, 0.0, 0.0, 0.0, 0.0)",0.038367,-0.019802,-0.277206,"(0.0, 0.0, 0.0, 0.0, 0.0, 0.0, 0.0, 0.0, 0.0)",0.38,-1.859,-9.863,"(0.0, 0.0, 0.0, 0.0, 0.0, 0.0, 0.0, 0.0, 0.0)",0,0,0,,0.2858,-0.1176,0.6417,"(0.0, 0.0, 0.0, 0.0, 0.0, 0.0, 0.0, 0.0, 0.0)","b'$VNYMR,-085.920,+005.549,-000.235,+00.2858,-00.1176,+00.6417,+00.380,-01.859,-09.863,+00.038367,-00.019802,-00.277206"
1666974631.666645,0,1666974631,659344434,IMU1_Frame,0,0,0,,0.03139718068408015,0.03641409652577063,-0.6831574828431535,0.7286865473265647,"(0.0, 0.0, 0.0, 0.0, 0.0, 0.0, 0.0, 0.0, 0.0)",0.023556,-0.031194,-0.280091,"(0.0, 0.0, 0.0, 0.0, 0.0, 0.0, 0.0, 0.0, 0.0)",0.66,-1.829,-9.692,"(0.0, 0.0, 0.0, 0.0, 0.0, 0.0, 0.0, 0.0, 0.0)",0,0,0,,0.2878,-0.1196,0.6584,"(0.0, 0.0, 0.0, 0.0, 0.0, 0.0, 0.0, 0.0, 0.0)","b'$VNYMR,-086.317,+005.507,-000.230,+00.2878,-00.1196,+00.6584,+00.660,-01.829,-09.692,+00.023556,-00.031194,-00.280091"
1666974631.7100787,0,1666974631,684478521,IMU1_Frame,0,0,0,,0.031236382471700127,0.036036517598062055,-0.6857221161906284,0.7262994128983807,"(0.0, 0.0, 0.0, 0.0, 0.0, 0.0, 0.0, 0.0, 0.0)",0.016961,-0.03388,-0.281561,"(0.0, 0.0, 0.0, 0.0, 0.0, 0.0, 0.0, 0.0, 0.0)",0.298,-1.587,-10.377,"(0.0, 0.0, 0.0, 0.0, 0.0, 0.0, 0.0, 0.0, 0.0)",0,0,0,,0.2869,-0.1146,0.6539,"(0.0, 0.0, 0.0, 0.0, 0.0, 0.0, 0.0, 0.0, 0.0)","b'$VNYMR,-086.719,+005.462,-000.233,+00.2869,-00.1146,+00.6539,+00.298,-01.587,-10.377,+00.016961,-00.033880,-00.281561"
1666974631.7145135,0,1666974631,714106798,IMU1_Frame,0,0,0,,0.031066703770364516,0.03573909869006269,-0.6883059360881959,0.7238732728091422,"(0.0, 0.0, 0.0, 0.0, 0.0, 0.0, 0.0, 0.0, 0.0)",0.018451,-0.02237,-0.286996,"(0.0, 0.0, 0.0, 0.0, 0.0, 0.0, 0.0, 0.0, 0.0)",0.366,-1.627,-9.968,"(0.0, 0.0, 0.0, 0.0, 0.0, 0.0, 0.0, 0.0, 0.0)",0,0,0,,0.2878,-0.1156,0.654,"(0.0, 0.0, 0.0, 0.0, 0.0, 0.0, 0.0, 0.0, 0.0)","b'$VNYMR,-087.126,+005.423,-000.243,+00.2878,-00.1156,+00.6540,+00.366,-01.627,-09.968,+00.018451,-00.022370,-00.286996"
1666974631.7581508,0,1666974631,733229875,IMU1_Frame,0,0,0,,0.03081434474208621,0.0355088561237822,-0.6908903037710907,0.7214292657287936,"(0.0, 0.0, 0.0, 0.0, 0.0, 0.0, 0.0, 0.0, 0.0)",0.006368,-0.026613,-0.286948,"(0.0, 0.0, 0.0, 0.0, 0.0, 0.0, 0.0, 0.0, 0.0)",0.733,-1.66,-10.12,"(0.0, 0.0, 0.0, 0.0, 0.0, 0.0, 0.0, 0.0, 0.0)",0,0,0,,0.2859,-0.1096,0.6394,"(0.0, 0.0, 0.0, 0.0, 0.0, 0.0, 0.0, 0.0, 0.0)","b'$VNYMR,-087.535,+005.383,-000.265,+00.2859,-00.1096,+00.6394,+00.733,-01.660,-10.120,+00.006368,-00.026613,-00.286948"
1666974631.8019724,0,1666974631,758566141,IMU1_Frame,0,0,0,,0.030472009245467828,0.03541489083997833,-0.6934592325670164,0.7189795093929321,"(0.0, 0.0, 0.0, 0.0, 0.0, 0.0, 0.0, 0.0, 0.0)",-0.010902,-0.025435,-0.2852,"(0.0, 0.0, 0.0, 0.0, 0.0, 0.0, 0.0, 0.0, 0.0)",0.006,-1.651,-10.895,"(0.0, 0.0, 0.0, 0.0, 0.0, 0.0, 0.0, 0.0, 0.0)",0,0,0,,0.2841,-0.1006,0.6326,"(0.0, 0.0, 0.0, 0.0, 0.0, 0.0, 0.0, 0.0, 0.0)","b'$VNYMR,-087.944,+005.347,-000.305,+00.2841,-00.1006,+00.6326,+00.006,-01.651,-10.895,-00.010902,-00.025435,-00.285200"
1666974631.8019898,0,1666974631,784025430,IMU1_Frame,0,0,0,,0.030100744286985993,0.03555816594038425,-0.6959953512872986,0.7165333439657888,"(0.0, 0.0, 0.0, 0.0, 0.0, 0.0, 0.0, 0.0, 0.0)",-0.021962,-0.002306,-0.28555,"(0.0, 0.0, 0.0, 0.0, 0.0, 0.0, 0.0, 0.0, 0.0)",0.268,-1.649,-10.31,"(0.0, 0.0, 0.0, 0.0, 0.0, 0.0, 0.0, 0.0, 0.0)",0,0,0,,0.285,-0.1096,0.6516,"(0.0, 0.0, 0.0, 0.0, 0.0, 0.0, 0.0, 0.0, 0.0)","b'$VNYMR,-088.351,+005.328,-000.366,+00.2850,-00.1096,+00.6516,+00.268,-01.649,-10.310,-00.021962,-00.002306,-00.285550"
1666974631.8475199,0,1666974631,807465314,IMU1_Frame,0,0,0,,0.029635882476383456,0.035821637764605806,-0.6984919058051199,0.714106142154259,"(0.0, 0.0, 0.0, 0.0, 0.0, 0.0, 0.0, 0.0, 0.0)",-0.033027,-0.010508,-0.281593,"(0.0, 0.0, 0.0, 0.0, 0.0, 0.0, 0.0, 0.0, 0.0)",0.457,-1.628,-9.969,"(0.0, 0.0, 0.0, 0.0, 0.0, 0.0, 0.0, 0.0, 0.0)",0,0,0,,0.2831,-0.1115,0.6471,"(0.0, 0.0, 0.0, 0.0, 0.0, 0.0, 0.0, 0.0, 0.0)","b'$VNYMR,-088.754,+005.311,-000.444,+00.2831,-00.1115,+00.6471,+00.457,-01.628,-09.969,-00.033027,-00.010508,-00.281593"
1666974631.8475392,0,1666974631,832933664,IMU1_Frame,0,0,0,,0.02922786205980999,0.03612053535628519,-0.7009658301493384,0.7116796638713493,"(0.0, 0.0, 0.0, 0.0, 0.0, 0.0, 0.0, 0.0, 0.0)",-0.026324,-0.00019,-0.278671,"(0.0, 0.0, 0.0, 0.0, 0.0, 0.0, 0.0, 0.0, 0.0)",-0.016,-1.405,-10.43,"(0.0, 0.0, 0.0, 0.0, 0.0, 0.0, 0.0, 0.0, 0.0)",0,0,0,,0.283,-0.1095,0.6327,"(0.0, 0.0, 0.0, 0.0, 0.0, 0.0, 0.0, 0.0, 0.0)","b'$VNYMR,-089.155,+005.301,-000.520,+00.2830,-00.1095,+00.6327,-00.016,-01.405,-10.430,-00.026324,-00.000190,-00.278671"
1666974631.890231,0,1666974631,872520446,IMU1_Frame,0,0,0,,0.028944833650709805,0.03637464594534366,-0.70341507798635,0.7092575764831427,"(0.0, 0.0, 0.0, 0.0, 0.0, 0.0, 0.0, 0.0, 0.0)",-0.009415,0.009765,-0.27833,"(0.0, 0.0, 0.0, 0.0, 0.0, 0.0, 0.0, 0.0, 0.0)",0.438,-1.194,-9.628,"(0.0, 0.0, 0.0, 0.0, 0.0, 0.0, 0.0, 0.0, 0.0)",0,0,0,,0.2773,-0.1094,0.6269,"(0.0, 0.0, 0.0, 0.0, 0.0, 0.0, 0.0, 0.0, 0.0)","b'$VNYMR,-089.553,+005.297,-000.582,+00.2773,-00.1094,+00.6269,+00.438,-01.194,-09.628,-00.009415,+00.009765,-00.278330"
1666974631.890257,0,1666974631,883194684,IMU1_Frame,0,0,0,,0.028743796816305917,0.03652666878032636,-0.7058550342220904,0.7068297300451692,"(0.0, 0.0, 0.0, 0.0, 0.0, 0.0, 0.0, 0.0, 0.0)",-0.00716,-0.008599,-0.279383,"(0.0, 0.0, 0.0, 0.0, 0.0, 0.0, 0.0, 0.0, 0.0)",0.489,-1.444,-9.67,"(0.0, 0.0, 0.0, 0.0, 0.0, 0.0, 0.0, 0.0, 0.0)",0,0,0,,0.2774,-0.1064,0.6235,"(0.0, 0.0, 0.0, 0.0, 0.0, 0.0, 0.0, 0.0, 0.0)","b'$VNYMR,-089.950,+005.291,-000.629,+00.2774,-00.1064,+00.6235,+00.489,-01.444,-09.670,-00.007160,-00.008599,-00.279383"
